$GPGGA,000079.665,4918.991,N,00014.403,W,1,12,1.0,0.0,M,0.0,M,,*7A
$GPGSA,A,3,01,02,03,04,05,06,07,08,09,10,11,12,1.0,1.0,1.0*30
$GPRMC,000255.665,A,4918.780,N,00014.801,W,3711.9,355.5,070824,000.0,W*5C
$GPGGA,001457.665,4918.548,N,00014.946,W,1,12,1.0,0.0,M,0.0,M,,*7A
$GPGSA,A,3,01,02,03,04,05,06,07,08,09,10,11,12,1.0,1.0,1.0*30
$GPRMC,001527.665,A,4918.412,N,00014.778,W,3711.9,355.5,070824,000.0,W*5C
$GPGGA,002143.665,4918.830,N,00014.804,W,1,12,1.0,0.0,M,0.0,M,,*7A
$GPGSA,A,3,01,02,03,04,05,06,07,08,09,10,11,12,1.0,1.0,1.0*30
$GPRMC,002164.665,A,4918.888,N,00014.746,W,3711.9,355.5,070824,000.0,W*5C
$GPGGA,002499.665,4918.656,N,00014.532,W,1,12,1.0,0.0,M,0.0,M,,*7A
$GPGSA,A,3,01,02,03,04,05,06,07,08,09,10,11,12,1.0,1.0,1.0*30
$GPRMC,002890.665,A,4918.929,N,00014.820,W,3711.9,355.5,070824,000.0,W*5C
$GPGGA,003645.665,4918.877,N,00014.745,W,1,12,1.0,0.0,M,0.0,M,,*7A
$GPGSA,A,3,01,02,03,04,05,06,07,08,09,10,11,12,1.0,1.0,1.0*30
$GPRMC,003272.665,A,4918.855,N,00014.165,W,3711.9,355.5,070824,000.0,W*5C
$GPGGA,004309.665,4918.744,N,00014.146,W,1,12,1.0,0.0,M,0.0,M,,*7A
$GPGSA,A,3,01,02,03,04,05,06,07,08,09,10,11,12,1.0,1.0,1.0*30
$GPRMC,004279.665,A,4918.707,N,00014.177,W,3711.9,355.5,070824,000.0,W*5C
$GPGGA,005993.665,4918.877,N,00014.324,W,1,12,1.0,0.0,M,0.0,M,,*7A
$GPGSA,A,3,01,02,03,04,05,06,07,08,09,10,11,12,1.0,1.0,1.0*30
$GPRMC,005119.665,A,4918.638,N,00014.367,W,3711.9,355.5,070824,000.0,W*5C
$GPGGA,005624.665,4918.847,N,00014.471,W,1,12,1.0,0.0,M,0.0,M,,*7A
$GPGSA,A,3,01,02,03,04,05,06,07,08,09,10,11,12,1.0,1.0,1.0*30
$GPRMC,005971.665,A,4918.880,N,00014.974,W,3711.9,355.5,070824,000.0,W*5C
$GPGGA,005746.665,4918.324,N,00014.463,W,1,12,1.0,0.0,M,0.0,M,,*7A
$GPGSA,A,3,01,02,03,04,05,06,07,08,09,10,11,12,1.0,1.0,1.0*30
$GPRMC,005872.665,A,4918.503,N,00014.830,W,3711.9,355.5,070824,000.0,W*5C
$GPGGA,005299.665,4918.546,N,00014.123,W,1,12,1.0,0.0,M,0.0,M,,*7A
$GPGSA,A,3,01,02,03,04,05,06,07,08,09,10,11,12,1.0,1.0,1.0*30
$GPRMC,005324.665,A,4918.480,N,00014.799,W,3711.9,355.5,070824,000.0,W*5C
$GPGGA,005621.665,4918.891,N,00014.745,W,1,12,1.0,0.0,M,0.0,M,,*7A
$GPGSA,A,3,01,02,03,04,05,06,07,08,09,10,11,12,1.0,1.0,1.0*30
$GPRMC,005849.665,A,4918.289,N,00014.339,W,3711.9,355.5,070824,000.0,W*5C
$GPGGA,005382.665,4918.952,N,00014.672,W,1,12,1.0,0.0,M,0.0,M,,*7A
$GPGSA,A,3,01,02,03,04,05,06,07,08,09,10,11,12,1.0,1.0,1.0*30
$GPRMC,005946.665,A,4918.379,N,00014.667,W,3711.9,355.5,070824,000.0,W*5C
$GPGGA,005024.665,4918.142,N,00014.759,W,1,12,1.0,0.0,M,0.0,M,,*7A
$GPGSA,A,3,01,02,03,04,05,06,07,08,09,10,11,12,1.0,1.0,1.0*30
$GPRMC,005266.665,A,4918.190,N,00014.322,W,3711.9,355.5,070824,000.0,W*5C
$GPGGA,005633.665,4918.969,N,00014.595,W,1,12,1.0,0.0,M,0.0,M,,*7A
$GPGSA,A,3,01,02,03,04,05,06,07,08,09,10,11,12,1.0,1.0,1.0*30
$GPRMC,005977.665,A,4918.432,N,00014.955,W,3711.9,355.5,070824,000.0,W*5C
$GPGGA,005003.665,4918.521,N,00014.434,W,1,12,1.0,0.0,M,0.0,M,,*7A
$GPGSA,A,3,01,02,03,04,05,06,07,08,09,10,11,12,1.0,1.0,1.0*30
$GPRMC,005815.665,A,4918.555,N,00014.893,W,3711.9,355.5,070824,000.0,W*5C
$GPGGA,005617.665,4918.482,N,00014.777,W,1,12,1.0,0.0,M,0.0,M,,*7A
$GPGSA,A,3,01,02,03,04,05,06,07,08,09,10,11,12,1.0,1.0,1.0*30
$GPRMC,005123.665,A,4918.244,N,00014.389,W,3711.9,355.5,070824,000.0,W*5C
$GPGGA,005497.665,4918.992,N,00014.526,W,1,12,1.0,0.0,M,0.0,M,,*7A
$GPGSA,A,3,01,02,03,04,05,06,07,08,09,10,11,12,1.0,1.0,1.0*30
$GPRMC,005108.665,A,4918.915,N,00014.277,W,3711.9,355.5,070824,000.0,W*5C
$GPGGA,005625.665,4918.901,N,00014.862,W,1,12,1.0,0.0,M,0.0,M,,*7A
$GPGSA,A,3,01,02,03,04,05,06,07,08,09,10,11,12,1.0,1.0,1.0*30
$GPRMC,005453.665,A,4918.683,N,00014.410,W,3711.9,355.5,070824,000.0,W*5C
$GPGGA,005182.665,4918.350,N,00014.270,W,1,12,1.0,0.0,M,0.0,M,,*7A
$GPGSA,A,3,01,02,03,04,05,06,07,08,09,10,11,12,1.0,1.0,1.0*30
$GPRMC,005174.665,A,4918.159,N,00014.354,W,3711.9,355.5,070824,000.0,W*5C
$GPGGA,005427.665,4918.982,N,00014.853,W,1,12,1.0,0.0,M,0.0,M,,*7A
$GPGSA,A,3,01,02,03,04,05,06,07,08,09,10,11,12,1.0,1.0,1.0*30
$GPRMC,005841.665,A,4918.797,N,00014.779,W,3711.9,355.5,070824,000.0,W*5C
$GPGGA,006094.665,4918.372,N,00014.425,W,1,12,1.0,0.0,M,0.0,M,,*7A
$GPGSA,A,3,01,02,03,04,05,06,07,08,09,10,11,12,1.0,1.0,1.0*30
$GPRMC,006046.665,A,4918.175,N,00014.125,W,3711.9,355.5,070824,000.0,W*5C
$GPGGA,006108.665,4918.595,N,00014.412,W,1,12,1.0,0.0,M,0.0,M,,*7A
$GPGSA,A,3,01,02,03,04,05,06,07,08,09,10,11,12,1.0,1.0,1.0*30
$GPRMC,006651.665,A,4918.206,N,00014.606,W,3711.9,355.5,070824,000.0,W*5C
$GPGGA,006998.665,4918.828,N,00014.425,W,1,12,1.0,0.0,M,0.0,M,,*7A
$GPGSA,A,3,01,02,03,04,05,06,07,08,09,10,11,12,1.0,1.0,1.0*30
$GPRMC,006277.665,A,4918.339,N,00014.973,W,3711.9,355.5,070824,000.0,W*5C
$GPGGA,006022.665,4918.759,N,00014.955,W,1,12,1.0,0.0,M,0.0,M,,*7A
$GPGSA,A,3,01,02,03,04,05,06,07,08,09,10,11,12,1.0,1.0,1.0*30
$GPRMC,006025.665,A,4918.267,N,00014.299,W,3711.9,355.5,070824,000.0,W*5C
$GPGGA,006472.665,4918.861,N,00014.859,W,1,12,1.0,0.0,M,0.0,M,,*7A
$GPGSA,A,3,01,02,03,04,05,06,07,08,09,10,11,12,1.0,1.0,1.0*30
$GPRMC,006959.665,A,4918.995,N,00014.272,W,3711.9,355.5,070824,000.0,W*5C
$GPGGA,006319.665,4918.537,N,00014.831,W,1,12,1.0,0.0,M,0.0,M,,*7A
$GPGSA,A,3,01,02,03,04,05,06,07,08,09,10,11,12,1.0,1.0,1.0*30
$GPRMC,006788.665,A,4918.433,N,00014.209,W,3711.9,355.5,070824,000.0,W*5C
$GPGGA,006228.665,4918.906,N,00014.837,W,1,12,1.0,0.0,M,0.0,M,,*7A
$GPGSA,A,3,01,02,03,04,05,06,07,08,09,10,11,12,1.0,1.0,1.0*30
$GPRMC,006226.665,A,4918.375,N,00014.123,W,3711.9,355.5,070824,000.0,W*5C
$GPGGA,006975.665,4918.889,N,00014.385,W,1,12,1.0,0.0,M,0.0,M,,*7A
$GPGSA,A,3,01,02,03,04,05,06,07,08,09,10,11,12,1.0,1.0,1.0*30
$GPRMC,006683.665,A,4918.113,N,00014.759,W,3711.9,355.5,070824,000.0,W*5C
$GPGGA,006269.665,4918.773,N,00014.679,W,1,12,1.0,0.0,M,0.0,M,,*7A
$GPGSA,A,3,01,02,03,04,05,06,07,08,09,10,11,12,1.0,1.0,1.0*30
$GPRMC,006359.665,A,4918.779,N,00014.508,W,3711.9,355.5,070824,000.0,W*5C
$GPGGA,006691.665,4918.620,N,00014.313,W,1,12,1.0,0.0,M,0.0,M,,*7A
$GPGSA,A,3,01,02,03,04,05,06,07,08,09,10,11,12,1.0,1.0,1.0*30
$GPRMC,006443.665,A,4918.642,N,00014.759,W,3711.9,355.5,070824,000.0,W*5C
$GPGGA,006836.665,4918.245,N,00014.572,W,1,12,1.0,0.0,M,0.0,M,,*7A
$GPGSA,A,3,01,02,03,04,05,06,07,08,09,10,11,12,1.0,1.0,1.0*30
$GPRMC,006569.665,A,4918.785,N,00014.304,W,3711.9,355.5,070824,000.0,W*5C
$GPGGA,006783.665,4918.594,N,00014.117,W,1,12,1.0,0.0,M,0.0,M,,*7A
$GPGSA,A,3,01,02,03,04,05,06,07,08,09,10,11,12,1.0,1.0,1.0*30
$GPRMC,006301.665,A,4918.772,N,00014.190,W,3711.9,355.5,070824,000.0,W*5C
$GPGGA,006798.665,4918.678,N,00014.306,W,1,12,1.0,0.0,M,0.0,M,,*7A
$GPGSA,A,3,01,02,03,04,05,06,07,08,09,10,11,12,1.0,1.0,1.0*30
$GPRMC,006185.665,A,4918.775,N,00014.394,W,3711.9,355.5,070824,000.0,W*5C
$GPGGA,006029.665,4918.573,N,00014.884,W,1,12,1.0,0.0,M,0.0,M,,*7A
$GPGSA,A,3,01,02,03,04,05,06,07,08,09,10,11,12,1.0,1.0,1.0*30
$GPRMC,006646.665,A,4918.832,N,00014.362,W,3711.9,355.5,070824,000.0,W*5C
$GPGGA,006992.665,4918.156,N,00014.236,W,1,12,1.0,0.0,M,0.0,M,,*7A
$GPGSA,A,3,01,02,03,04,05,06,07,08,09,10,11,12,1.0,1.0,1.0*30
$GPRMC,006922.665,A,4918.422,N,00014.307,W,3711.9,355.5,070824,000.0,W*5C
$GPGGA,006057.665,4918.510,N,00014.757,W,1,12,1.0,0.0,M,0.0,M,,*7A
$GPGSA,A,3,01,02,03,04,05,06,07,08,09,10,11,12,1.0,1.0,1.0*30
$GPRMC,006899.665,A,4918.704,N,00014.897,W,3711.9,355.5,070824,000.0,W*5C
$GPGGA,006537.665,4918.849,N,00014.540,W,1,12,1.0,0.0,M,0.0,M,,*7A
$GPGSA,A,3,01,02,03,04,05,06,07,08,09,10,11,12,1.0,1.0,1.0*30
$GPRMC,006473.665,A,4918.634,N,00014.897,W,3711.9,355.5,070824,000.0,W*5C
$GPGGA,007552.665,4918.250,N,00014.530,W,1,12,1.0,0.0,M,0.0,M,,*7A
$GPGSA,A,3,01,02,03,04,05,06,07,08,09,10,11,12,1.0,1.0,1.0*30
$GPRMC,007196.665,A,4918.450,N,00014.313,W,3711.9,355.5,070824,000.0,W*5C
$GPGGA,007569.665,4918.670,N,00014.263,W,1,12,1.0,0.0,M,0.0,M,,*7A
$GPGSA,A,3,01,02,03,04,05,06,07,08,09,10,11,12,1.0,1.0,1.0*30
$GPRMC,007190.665,A,4918.929,N,00014.763,W,3711.9,355.5,070824,000.0,W*5C
$GPGGA,007076.665,4918.750,N,00014.969,W,1,12,1.0,0.0,M,0.0,M,,*7A
$GPGSA,A,3,01,02,03,04,05,06,07,08,09,10,11,12,1.0,1.0,1.0*30
$GPRMC,007808.665,A,4918.218,N,00014.649,W,3711.9,355.5,070824,000.0,W*5C
$GPGGA,007503.665,4918.516,N,00014.643,W,1,12,1.0,0.0,M,0.0,M,,*7A
$GPGSA,A,3,01,02,03,04,05,06,07,08,09,10,11,12,1.0,1.0,1.0*30
$GPRMC,007718.665,A,4918.880,N,00014.907,W,3711.9,355.5,070824,000.0,W*5C
$GPGGA,007622.665,4918.723,N,00014.792,W,1,12,1.0,0.0,M,0.0,M,,*7A
$GPGSA,A,3,01,02,03,04,05,06,07,08,09,10,11,12,1.0,1.0,1.0*30
$GPRMC,007671.665,A,4918.416,N,00014.894,W,3711.9,355.5,070824,000.0,W*5C
$GPGGA,007446.665,4918.773,N,00014.567,W,1,12,1.0,0.0,M,0.0,M,,*7A
$GPGSA,A,3,01,02,03,04,05,06,07,08,09,10,11,12,1.0,1.0,1.0*30
$GPRMC,007413.665,A,4918.111,N,00014.234,W,3711.9,355.5,070824,000.0,W*5C
$GPGGA,007817.665,4918.274,N,00014.234,W,1,12,1.0,0.0,M,0.0,M,,*7A
$GPGSA,A,3,01,02,03,04,05,06,07,08,09,10,11,12,1.0,1.0,1.0*30
$GPRMC,007975.665,A,4918.954,N,00014.876,W,3711.9,355.5,070824,000.0,W*5C
$GPGGA,007536.665,4918.598,N,00014.751,W,1,12,1.0,0.0,M,0.0,M,,*7A
$GPGSA,A,3,01,02,03,04,05,06,07,08,09,10,11,12,1.0,1.0,1.0*30
$GPRMC,007388.665,A,4918.303,N,00014.483,W,3711.9,355.5,070824,000.0,W*5C
$GPGGA,007924.665,4918.134,N,00014.476,W,1,12,1.0,0.0,M,0.0,M,,*7A
$GPGSA,A,3,01,02,03,04,05,06,07,08,09,10,11,12,1.0,1.0,1.0*30
$GPRMC,007801.665,A,4918.508,N,00014.818,W,3711.9,355.5,070824,000.0,W*5C
$GPGGA,007670.665,4918.632,N,00014.196,W,1,12,1.0,0.0,M,0.0,M,,*7A
$GPGSA,A,3,01,02,03,04,05,06,07,08,09,10,11,12,1.0,1.0,1.0*30
$GPRMC,007245.665,A,4918.678,N,00014.568,W,3711.9,355.5,070824,000.0,W*5C
$GPGGA,007859.665,4918.634,N,00014.261,W,1,12,1.0,0.0,M,0.0,M,,*7A
$GPGSA,A,3,01,02,03,04,05,06,07,08,09,10,11,12,1.0,1.0,1.0*30
$GPRMC,007716.665,A,4918.193,N,00014.683,W,3711.9,355.5,070824,000.0,W*5C
$GPGGA,007576.665,4918.920,N,00014.563,W,1,12,1.0,0.0,M,0.0,M,,*7A
$GPGSA,A,3,01,02,03,04,05,06,07,08,09,10,11,12,1.0,1.0,1.0*30
$GPRMC,007253.665,A,4918.102,N,00014.317,W,3711.9,355.5,070824,000.0,W*5C
$GPGGA,007000.665,4918.150,N,00014.497,W,1,12,1.0,0.0,M,0.0,M,,*7A
$GPGSA,A,3,01,02,03,04,05,06,07,08,09,10,11,12,1.0,1.0,1.0*30
$GPRMC,007001.665,A,4918.700,N,00014.251,W,3711.9,355.5,070824,000.0,W*5C
$GPGGA,007691.665,4918.993,N,00014.274,W,1,12,1.0,0.0,M,0.0,M,,*7A
$GPGSA,A,3,01,02,03,04,05,06,07,08,09,10,11,12,1.0,1.0,1.0*30
$GPRMC,007866.665,A,4918.981,N,00014.113,W,3711.9,355.5,070824,000.0,W*5C
$GPGGA,007520.665,4918.588,N,00014.324,W,1,12,1.0,0.0,M,0.0,M,,*7A
$GPGSA,A,3,01,02,03,04,05,06,07,08,09,10,11,12,1.0,1.0,1.0*30
$GPRMC,007030.665,A,4918.944,N,00014.714,W,3711.9,355.5,070824,000.0,W*5C
$GPGGA,007010.665,4918.208,N,00014.816,W,1,12,1.0,0.0,M,0.0,M,,*7A
$GPGSA,A,3,01,02,03,04,05,06,07,08,09,10,11,12,1.0,1.0,1.0*30
$GPRMC,007246.665,A,4918.485,N,00014.300,W,3711.9,355.5,070824,000.0,W*5C
$GPGGA,007446.665,4918.524,N,00014.611,W,1,12,1.0,0.0,M,0.0,M,,*7A
$GPGSA,A,3,01,02,03,04,05,06,07,08,09,10,11,12,1.0,1.0,1.0*30
$GPRMC,007755.665,A,4918.175,N,00014.599,W,3711.9,355.5,070824,000.0,W*5C
$GPGGA,007990.665,4918.694,N,00014.886,W,1,12,1.0,0.0,M,0.0,M,,*7A
$GPGSA,A,3,01,02,03,04,05,06,07,08,09,10,11,12,1.0,1.0,1.0*30
$GPRMC,007434.665,A,4918.740,N,00014.745,W,3711.9,355.5,070824,000.0,W*5C
$GPGGA,007574.665,4918.598,N,00014.126,W,1,12,1.0,0.0,M,0.0,M,,*7A
$GPGSA,A,3,01,02,03,04,05,06,07,08,09,10,11,12,1.0,1.0,1.0*30
$GPRMC,007288.665,A,4918.224,N,00014.584,W,3711.9,355.5,070824,000.0,W*5C
$GPGGA,007494.665,4918.633,N,00014.887,W,1,12,1.0,0.0,M,0.0,M,,*7A
$GPGSA,A,3,01,02,03,04,05,06,07,08,09,10,11,12,1.0,1.0,1.0*30
$GPRMC,007803.665,A,4918.486,N,00014.379,W,3711.9,355.5,070824,000.0,W*5C
$GPGGA,007188.665,4918.471,N,00014.927,W,1,12,1.0,0.0,M,0.0,M,,*7A
$GPGSA,A,3,01,02,03,04,05,06,07,08,09,10,11,12,1.0,1.0,1.0*30
$GPRMC,007104.665,A,4918.384,N,00014.215,W,3711.9,355.5,070824,000.0,W*5C
$GPGGA,007163.665,4918.622,N,00014.310,W,1,12,1.0,0.0,M,0.0,M,,*7A
$GPGSA,A,3,01,02,03,04,05,06,07,08,09,10,11,12,1.0,1.0,1.0*30
$GPRMC,007271.665,A,4918.180,N,00014.882,W,3711.9,355.5,070824,000.0,W*5C
$GPGGA,007875.665,4918.268,N,00014.606,W,1,12,1.0,0.0,M,0.0,M,,*7A
$GPGSA,A,3,01,02,03,04,05,06,07,08,09,10,11,12,1.0,1.0,1.0*30
$GPRMC,007333.665,A,4918.160,N,00014.455,W,3711.9,355.5,070824,000.0,W*5C
$GPGGA,007443.665,4918.438,N,00014.220,W,1,12,1.0,0.0,M,0.0,M,,*7A
$GPGSA,A,3,01,02,03,04,05,06,07,08,09,10,11,12,1.0,1.0,1.0*30
$GPRMC,007455.665,A,4918.759,N,00014.513,W,3711.9,355.5,070824,000.0,W*5C
$GPGGA,007154.665,4918.456,N,00014.961,W,1,12,1.0,0.0,M,0.0,M,,*7A
$GPGSA,A,3,01,02,03,04,05,06,07,08,09,10,11,12,1.0,1.0,1.0*30
$GPRMC,007214.665,A,4918.274,N,00014.383,W,3711.9,355.5,070824,000.0,W*5C
$GPGGA,007349.665,4918.503,N,00014.615,W,1,12,1.0,0.0,M,0.0,M,,*7A
$GPGSA,A,3,01,02,03,04,05,06,07,08,09,10,11,12,1.0,1.0,1.0*30
$GPRMC,007047.665,A,4918.854,N,00014.968,W,3711.9,355.5,070824,000.0,W*5C
$GPGGA,007107.665,4918.579,N,00014.655,W,1,12,1.0,0.0,M,0.0,M,,*7A
$GPGSA,A,3,01,02,03,04,05,06,07,08,09,10,11,12,1.0,1.0,1.0*30
$GPRMC,007775.665,A,4918.978,N,00014.181,W,3711.9,355.5,070824,000.0,W*5C
$GPGGA,007092.665,4918.901,N,00014.421,W,1,12,1.0,0.0,M,0.0,M,,*7A
$GPGSA,A,3,01,02,03,04,05,06,07,08,09,10,11,12,1.0,1.0,1.0*30
$GPRMC,007066.665,A,4918.722,N,00014.968,W,3711.9,355.5,070824,000.0,W*5C
$GPGGA,007044.665,4918.912,N,00014.103,W,1,12,1.0,0.0,M,0.0,M,,*7A
$GPGSA,A,3,01,02,03,04,05,06,07,08,09,10,11,12,1.0,1.0,1.0*30
$GPRMC,007021.665,A,4918.183,N,00014.673,W,3711.9,355.5,070824,000.0,W*5C
$GPGGA,007281.665,4918.811,N,00014.155,W,1,12,1.0,0.0,M,0.0,M,,*7A
$GPGSA,A,3,01,02,03,04,05,06,07,08,09,10,11,12,1.0,1.0,1.0*30
$GPRMC,007073.665,A,4918.275,N,00014.455,W,3711.9,355.5,070824,000.0,W*5C
$GPGGA,007512.665,4918.394,N,00014.331,W,1,12,1.0,0.0,M,0.0,M,,*7A
$GPGSA,A,3,01,02,03,04,05,06,07,08,09,10,11,12,1.0,1.0,1.0*30
$GPRMC,007264.665,A,4918.358,N,00014.773,W,3711.9,355.5,070824,000.0,W*5C
$GPGGA,007152.665,4918.398,N,00014.985,W,1,12,1.0,0.0,M,0.0,M,,*7A
$GPGSA,A,3,01,02,03,04,05,06,07,08,09,10,11,12,1.0,1.0,1.0*30
$GPRMC,007007.665,A,4918.931,N,00014.203,W,3711.9,355.5,070824,000.0,W*5C
$GPGGA,007047.665,4918.319,N,00014.210,W,1,12,1.0,0.0,M,0.0,M,,*7A
$GPGSA,A,3,01,02,03,04,05,06,07,08,09,10,11,12,1.0,1.0,1.0*30
$GPRMC,007569.665,A,4918.854,N,00014.681,W,3711.9,355.5,070824,000.0,W*5C
$GPGGA,007905.665,4918.137,N,00014.575,W,1,12,1.0,0.0,M,0.0,M,,*7A
$GPGSA,A,3,01,02,03,04,05,06,07,08,09,10,11,12,1.0,1.0,1.0*30
$GPRMC,007664.665,A,4918.352,N,00014.213,W,3711.9,355.5,070824,000.0,W*5C
$GPGGA,007172.665,4918.423,N,00014.909,W,1,12,1.0,0.0,M,0.0,M,,*7A
$GPGSA,A,3,01,02,03,04,05,06,07,08,09,10,11,12,1.0,1.0,1.0*30
$GPRMC,007528.665,A,4918.659,N,00014.133,W,3711.9,355.5,070824,000.0,W*5C
$GPGGA,007662.665,4918.997,N,00014.792,W,1,12,1.0,0.0,M,0.0,M,,*7A
$GPGSA,A,3,01,02,03,04,05,06,07,08,09,10,11,12,1.0,1.0,1.0*30
$GPRMC,007655.665,A,4918.608,N,00014.514,W,3711.9,355.5,070824,000.0,W*5C
$GPGGA,007683.665,4918.286,N,00014.874,W,1,12,1.0,0.0,M,0.0,M,,*7A
$GPGSA,A,3,01,02,03,04,05,06,07,08,09,10,11,12,1.0,1.0,1.0*30
$GPRMC,007006.665,A,4918.987,N,00014.813,W,3711.9,355.5,070824,000.0,W*5C
$GPGGA,007445.665,4918.503,N,00014.371,W,1,12,1.0,0.0,M,0.0,M,,*7A
$GPGSA,A,3,01,02,03,04,05,06,07,08,09,10,11,12,1.0,1.0,1.0*30
$GPRMC,007974.665,A,4918.221,N,00014.629,W,3711.9,355.5,070824,000.0,W*5C
$GPGGA,007366.665,4918.324,N,00014.527,W,1,12,1.0,0.0,M,0.0,M,,*7A
$GPGSA,A,3,01,02,03,04,05,06,07,08,09,10,11,12,1.0,1.0,1.0*30
$GPRMC,007823.665,A,4918.102,N,00014.461,W,3711.9,355.5,070824,000.0,W*5C
$GPGGA,007120.665,4918.291,N,00014.738,W,1,12,1.0,0.0,M,0.0,M,,*7A
$GPGSA,A,3,01,02,03,04,05,06,07,08,09,10,11,12,1.0,1.0,1.0*30
$GPRMC,007448.665,A,4918.900,N,00014.596,W,3711.9,355.5,070824,000.0,W*5C
$GPGGA,007021.665,4918.111,N,00014.924,W,1,12,1.0,0.0,M,0.0,M,,*7A
$GPGSA,A,3,01,02,03,04,05,06,07,08,09,10,11,12,1.0,1.0,1.0*30
$GPRMC,007144.665,A,4918.628,N,00014.277,W,3711.9,355.5,070824,000.0,W*5C
$GPGGA,008672.665,4918.377,N,00014.303,W,1,12,1.0,0.0,M,0.0,M,,*7A
$GPGSA,A,3,01,02,03,04,05,06,07,08,09,10,11,12,1.0,1.0,1.0*30
$GPRMC,008507.665,A,4918.581,N,00014.980,W,3711.9,355.5,070824,000.0,W*5C
$GPGGA,008790.665,4918.600,N,00014.416,W,1,12,1.0,0.0,M,0.0,M,,*7A
$GPGSA,A,3,01,02,03,04,05,06,07,08,09,10,11,12,1.0,1.0,1.0*30
$GPRMC,008165.665,A,4918.415,N,00014.545,W,3711.9,355.5,070824,000.0,W*5C
$GPGGA,008325.665,4918.447,N,00014.455,W,1,12,1.0,0.0,M,0.0,M,,*7A
$GPGSA,A,3,01,02,03,04,05,06,07,08,09,10,11,12,1.0,1.0,1.0*30
$GPRMC,008683.665,A,4918.470,N,00014.265,W,3711.9,355.5,070824,000.0,W*5C
$GPGGA,008109.665,4918.482,N,00014.208,W,1,12,1.0,0.0,M,0.0,M,,*7A
$GPGSA,A,3,01,02,03,04,05,06,07,08,09,10,11,12,1.0,1.0,1.0*30
$GPRMC,008807.665,A,4918.694,N,00014.817,W,3711.9,355.5,070824,000.0,W*5C
$GPGGA,008588.665,4918.997,N,00014.430,W,1,12,1.0,0.0,M,0.0,M,,*7A
$GPGSA,A,3,01,02,03,04,05,06,07,08,09,10,11,12,1.0,1.0,1.0*30
$GPRMC,008360.665,A,4918.315,N,00014.854,W,3711.9,355.5,070824,000.0,W*5C
$GPGGA,008868.665,4918.420,N,00014.687,W,1,12,1.0,0.0,M,0.0,M,,*7A
$GPGSA,A,3,01,02,03,04,05,06,07,08,09,10,11,12,1.0,1.0,1.0*30
$GPRMC,008019.665,A,4918.523,N,00014.634,W,3711.9,355.5,070824,000.0,W*5C
$GPGGA,008506.665,4918.189,N,00014.763,W,1,12,1.0,0.0,M,0.0,M,,*7A
$GPGSA,A,3,01,02,03,04,05,06,07,08,09,10,11,12,1.0,1.0,1.0*30
$GPRMC,008042.665,A,4918.438,N,00014.644,W,3711.9,355.5,070824,000.0,W*5C
$GPGGA,008846.665,4918.686,N,00014.770,W,1,12,1.0,0.0,M,0.0,M,,*7A
$GPGSA,A,3,01,02,03,04,05,06,07,08,09,10,11,12,1.0,1.0,1.0*30
$GPRMC,008466.665,A,4918.585,N,00014.177,W,3711.9,355.5,070824,000.0,W*5C
$GPGGA,008303.665,4918.987,N,00014.247,W,1,12,1.0,0.0,M,0.0,M,,*7A
$GPGSA,A,3,01,02,03,04,05,06,07,08,09,10,11,12,1.0,1.0,1.0*30
$GPRMC,008865.665,A,4918.264,N,00014.164,W,3711.9,355.5,070824,000.0,W*5C
$GPGGA,008391.665,4918.907,N,00014.865,W,1,12,1.0,0.0,M,0.0,M,,*7A
$GPGSA,A,3,01,02,03,04,05,06,07,08,09,10,11,12,1.0,1.0,1.0*30
$GPRMC,008670.665,A,4918.399,N,00014.173,W,3711.9,355.5,070824,000.0,W*5C
$GPGGA,008089.665,4918.718,N,00014.127,W,1,12,1.0,0.0,M,0.0,M,,*7A
$GPGSA,A,3,01,02,03,04,05,06,07,08,09,10,11,12,1.0,1.0,1.0*30
$GPRMC,008690.665,A,4918.132,N,00014.473,W,3711.9,355.5,070824,000.0,W*5C
$GPGGA,008826.665,4918.921,N,00014.524,W,1,12,1.0,0.0,M,0.0,M,,*7A
$GPGSA,A,3,01,02,03,04,05,06,07,08,09,10,11,12,1.0,1.0,1.0*30
$GPRMC,008266.665,A,4918.731,N,00014.261,W,3711.9,355.5,070824,000.0,W*5C
$GPGGA,008915.665,4918.252,N,00014.627,W,1,12,1.0,0.0,M,0.0,M,,*7A
$GPGSA,A,3,01,02,03,04,05,06,07,08,09,10,11,12,1.0,1.0,1.0*30
$GPRMC,008437.665,A,4918.272,N,00014.835,W,3711.9,355.5,070824,000.0,W*5C
$GPGGA,008716.665,4918.471,N,00014.502,W,1,12,1.0,0.0,M,0.0,M,,*7A
$GPGSA,A,3,01,02,03,04,05,06,07,08,09,10,11,12,1.0,1.0,1.0*30
$GPRMC,008246.665,A,4918.543,N,00014.990,W,3711.9,355.5,070824,000.0,W*5C
$GPGGA,008921.665,4918.466,N,00014.886,W,1,12,1.0,0.0,M,0.0,M,,*7A
$GPGSA,A,3,01,02,03,04,05,06,07,08,09,10,11,12,1.0,1.0,1.0*30
$GPRMC,008922.665,A,4918.320,N,00014.531,W,3711.9,355.5,070824,000.0,W*5C
$GPGGA,008416.665,4918.458,N,00014.857,W,1,12,1.0,0.0,M,0.0,M,,*7A
$GPGSA,A,3,01,02,03,04,05,06,07,08,09,10,11,12,1.0,1.0,1.0*30
$GPRMC,008644.665,A,4918.577,N,00014.514,W,3711.9,355.5,070824,000.0,W*5C
$GPGGA,008824.665,4918.260,N,00014.689,W,1,12,1.0,0.0,M,0.0,M,,*7A
$GPGSA,A,3,01,02,03,04,05,06,07,08,09,10,11,12,1.0,1.0,1.0*30
$GPRMC,008989.665,A,4918.373,N,00014.234,W,3711.9,355.5,070824,000.0,W*5C
$GPGGA,008928.665,4918.597,N,00014.834,W,1,12,1.0,0.0,M,0.0,M,,*7A
$GPGSA,A,3,01,02,03,04,05,06,07,08,09,10,11,12,1.0,1.0,1.0*30
$GPRMC,008394.665,A,4918.633,N,00014.806,W,3711.9,355.5,070824,000.0,W*5C
$GPGGA,008990.665,4918.255,N,00014.734,W,1,12,1.0,0.0,M,0.0,M,,*7A
$GPGSA,A,3,01,02,03,04,05,06,07,08,09,10,11,12,1.0,1.0,1.0*30
$GPRMC,008534.665,A,4918.499,N,00014.774,W,3711.9,355.5,070824,000.0,W*5C
$GPGGA,008576.665,4918.284,N,00014.169,W,1,12,1.0,0.0,M,0.0,M,,*7A
$GPGSA,A,3,01,02,03,04,05,06,07,08,09,10,11,12,1.0,1.0,1.0*30
$GPRMC,008689.665,A,4918.381,N,00014.400,W,3711.9,355.5,070824,000.0,W*5C
$GPGGA,008599.665,4918.698,N,00014.502,W,1,12,1.0,0.0,M,0.0,M,,*7A
$GPGSA,A,3,01,02,03,04,05,06,07,08,09,10,11,12,1.0,1.0,1.0*30
$GPRMC,008246.665,A,4918.380,N,00014.979,W,3711.9,355.5,070824,000.0,W*5C
$GPGGA,008693.665,4918.369,N,00014.991,W,1,12,1.0,0.0,M,0.0,M,,*7A
$GPGSA,A,3,01,02,03,04,05,06,07,08,09,10,11,12,1.0,1.0,1.0*30
$GPRMC,008666.665,A,4918.626,N,00014.574,W,3711.9,355.5,070824,000.0,W*5C
$GPGGA,008606.665,4918.956,N,00014.256,W,1,12,1.0,0.0,M,0.0,M,,*7A
$GPGSA,A,3,01,02,03,04,05,06,07,08,09,10,11,12,1.0,1.0,1.0*30
$GPRMC,008794.665,A,4918.180,N,00014.715,W,3711.9,355.5,070824,000.0,W*5C
$GPGGA,008113.665,4918.277,N,00014.368,W,1,12,1.0,0.0,M,0.0,M,,*7A
$GPGSA,A,3,01,02,03,04,05,06,07,08,09,10,11,12,1.0,1.0,1.0*30
$GPRMC,008294.665,A,4918.423,N,00014.643,W,3711.9,355.5,070824,000.0,W*5C
$GPGGA,009707.665,4918.644,N,00014.206,W,1,12,1.0,0.0,M,0.0,M,,*7A
$GPGSA,A,3,01,02,03,04,05,06,07,08,09,10,11,12,1.0,1.0,1.0*30
$GPRMC,009592.665,A,4918.573,N,00014.178,W,3711.9,355.5,070824,000.0,W*5C
$GPGGA,009457.665,4918.188,N,00014.442,W,1,12,1.0,0.0,M,0.0,M,,*7A
$GPGSA,A,3,01,02,03,04,05,06,07,08,09,10,11,12,1.0,1.0,1.0*30
$GPRMC,009648.665,A,4918.389,N,00014.642,W,3711.9,355.5,070824,000.0,W*5C
$GPGGA,009638.665,4918.922,N,00014.822,W,1,12,1.0,0.0,M,0.0,M,,*7A
$GPGSA,A,3,01,02,03,04,05,06,07,08,09,10,11,12,1.0,1.0,1.0*30
$GPRMC,009238.665,A,4918.675,N,00014.516,W,3711.9,355.5,070824,000.0,W*5C
$GPGGA,009614.665,4918.679,N,00014.716,W,1,12,1.0,0.0,M,0.0,M,,*7A
$GPGSA,A,3,01,02,03,04,05,06,07,08,09,10,11,12,1.0,1.0,1.0*30
$GPRMC,009258.665,A,4918.989,N,00014.372,W,3711.9,355.5,070824,000.0,W*5C
$GPGGA,009325.665,4918.543,N,00014.221,W,1,12,1.0,0.0,M,0.0,M,,*7A
$GPGSA,A,3,01,02,03,04,05,06,07,08,09,10,11,12,1.0,1.0,1.0*30
$GPRMC,009759.665,A,4918.584,N,00014.758,W,3711.9,355.5,070824,000.0,W*5C
$GPGGA,009044.665,4918.206,N,00014.204,W,1,12,1.0,0.0,M,0.0,M,,*7A
$GPGSA,A,3,01,02,03,04,05,06,07,08,09,10,11,12,1.0,1.0,1.0*30
$GPRMC,009022.665,A,4918.439,N,00014.236,W,3711.9,355.5,070824,000.0,W*5C
$GPGGA,009652.665,4918.928,N,00014.587,W,1,12,1.0,0.0,M,0.0,M,,*7A
$GPGSA,A,3,01,02,03,04,05,06,07,08,09,10,11,12,1.0,1.0,1.0*30
$GPRMC,009356.665,A,4918.349,N,00014.357,W,3711.9,355.5,070824,000.0,W*5C
$GPGGA,009555.665,4918.921,N,00014.471,W,1,12,1.0,0.0,M,0.0,M,,*7A
$GPGSA,A,3,01,02,03,04,05,06,07,08,09,10,11,12,1.0,1.0,1.0*30
$GPRMC,009145.665,A,4918.979,N,00014.614,W,3711.9,355.5,070824,000.0,W*5C
$GPGGA,009714.665,4918.859,N,00014.795,W,1,12,1.0,0.0,M,0.0,M,,*7A
$GPGSA,A,3,01,02,03,04,05,06,07,08,09,10,11,12,1.0,1.0,1.0*30
$GPRMC,009997.665,A,4918.576,N,00014.177,W,3711.9,355.5,070824,000.0,W*5C
$GPGGA,009673.665,4918.911,N,00014.498,W,1,12,1.0,0.0,M,0.0,M,,*7A
$GPGSA,A,3,01,02,03,04,05,06,07,08,09,10,11,12,1.0,1.0,1.0*30
$GPRMC,009572.665,A,4918.709,N,00014.613,W,3711.9,355.5,070824,000.0,W*5C
$GPGGA,009259.665,4918.287,N,00014.643,W,1,12,1.0,0.0,M,0.0,M,,*7A
$GPGSA,A,3,01,02,03,04,05,06,07,08,09,10,11,12,1.0,1.0,1.0*30
$GPRMC,009862.665,A,4918.968,N,00014.757,W,3711.9,355.5,070824,000.0,W*5C
$GPGGA,009832.665,4918.446,N,00014.987,W,1,12,1.0,0.0,M,0.0,M,,*7A
$GPGSA,A,3,01,02,03,04,05,06,07,08,09,10,11,12,1.0,1.0,1.0*30
$GPRMC,009851.665,A,4918.949,N,00014.436,W,3711.9,355.5,070824,000.0,W*5C
$GPGGA,009927.665,4918.550,N,00014.314,W,1,12,1.0,0.0,M,0.0,M,,*7A
$GPGSA,A,3,01,02,03,04,05,06,07,08,09,10,11,12,1.0,1.0,1.0*30
$GPRMC,009656.665,A,4918.434,N,00014.121,W,3711.9,355.5,070824,000.0,W*5C
$GPGGA,009375.665,4918.771,N,00014.652,W,1,12,1.0,0.0,M,0.0,M,,*7A
$GPGSA,A,3,01,02,03,04,05,06,07,08,09,10,11,12,1.0,1.0,1.0*30
$GPRMC,009788.665,A,4918.280,N,00014.161,W,3711.9,355.5,070824,000.0,W*5C
$GPGGA,009643.665,4918.513,N,00014.511,W,1,12,1.0,0.0,M,0.0,M,,*7A
$GPGSA,A,3,01,02,03,04,05,06,07,08,09,10,11,12,1.0,1.0,1.0*30
$GPRMC,009034.665,A,4918.671,N,00014.478,W,3711.9,355.5,070824,000.0,W*5C
$GPGGA,009173.665,4918.519,N,00014.484,W,1,12,1.0,0.0,M,0.0,M,,*7A
$GPGSA,A,3,01,02,03,04,05,06,07,08,09,10,11,12,1.0,1.0,1.0*30
$GPRMC,009822.665,A,4918.884,N,00014.466,W,3711.9,355.5,070824,000.0,W*5C
$GPGGA,009051.665,4918.524,N,00014.610,W,1,12,1.0,0.0,M,0.0,M,,*7A
$GPGSA,A,3,01,02,03,04,05,06,07,08,09,10,11,12,1.0,1.0,1.0*30
$GPRMC,009530.665,A,4918.948,N,00014.377,W,3711.9,355.5,070824,000.0,W*5C
$GPGGA,009399.665,4918.483,N,00014.385,W,1,12,1.0,0.0,M,0.0,M,,*7A
$GPGSA,A,3,01,02,03,04,05,06,07,08,09,10,11,12,1.0,1.0,1.0*30
$GPRMC,009624.665,A,4918.866,N,00014.737,W,3711.9,355.5,070824,000.0,W*5C
$GPGGA,009084.665,4918.783,N,00014.427,W,1,12,1.0,0.0,M,0.0,M,,*7A
$GPGSA,A,3,01,02,03,04,05,06,07,08,09,10,11,12,1.0,1.0,1.0*30
$GPRMC,009369.665,A,4918.712,N,00014.906,W,3711.9,355.5,070824,000.0,W*5C
$GPGGA,009672.665,4918.769,N,00014.672,W,1,12,1.0,0.0,M,0.0,M,,*7A
$GPGSA,A,3,01,02,03,04,05,06,07,08,09,10,11,12,1.0,1.0,1.0*30
$GPRMC,009333.665,A,4918.989,N,00014.311,W,3711.9,355.5,070824,000.0,W*5C
$GPGGA,009778.665,4918.480,N,00014.837,W,1,12,1.0,0.0,M,0.0,M,,*7A
$GPGSA,A,3,01,02,03,04,05,06,07,08,09,10,11,12,1.0,1.0,1.0*30
$GPRMC,009904.665,A,4918.310,N,00014.100,W,3711.9,355.5,070824,000.0,W*5C
$GPGGA,009462.665,4918.753,N,00014.323,W,1,12,1.0,0.0,M,0.0,M,,*7A
$GPGSA,A,3,01,02,03,04,05,06,07,08,09,10,11,12,1.0,1.0,1.0*30
$GPRMC,009315.665,A,4918.365,N,00014.626,W,3711.9,355.5,070824,000.0,W*5C
$GPGGA,009951.665,4918.307,N,00014.741,W,1,12,1.0,0.0,M,0.0,M,,*7A
$GPGSA,A,3,01,02,03,04,05,06,07,08,09,10,11,12,1.0,1.0,1.0*30
$GPRMC,009924.665,A,4918.173,N,00014.135,W,3711.9,355.5,070824,000.0,W*5C
$GPGGA,009282.665,4918.210,N,00014.168,W,1,12,1.0,0.0,M,0.0,M,,*7A
$GPGSA,A,3,01,02,03,04,05,06,07,08,09,10,11,12,1.0,1.0,1.0*30
$GPRMC,009785.665,A,4918.328,N,00014.447,W,3711.9,355.5,070824,000.0,W*5C
$GPGGA,009203.665,4918.473,N,00014.430,W,1,12,1.0,0.0,M,0.0,M,,*7A
$GPGSA,A,3,01,02,03,04,05,06,07,08,09,10,11,12,1.0,1.0,1.0*30
$GPRMC,009170.665,A,4918.843,N,00014.221,W,3711.9,355.5,070824,000.0,W*5C
$GPGGA,009126.665,4918.884,N,00014.296,W,1,12,1.0,0.0,M,0.0,M,,*7A
$GPGSA,A,3,01,02,03,04,05,06,07,08,09,10,11,12,1.0,1.0,1.0*30
$GPRMC,009958.665,A,4918.442,N,00014.763,W,3711.9,355.5,070824,000.0,W*5C
$GPGGA,009025.665,4918.585,N,00014.378,W,1,12,1.0,0.0,M,0.0,M,,*7A
$GPGSA,A,3,01,02,03,04,05,06,07,08,09,10,11,12,1.0,1.0,1.0*30
$GPRMC,009022.665,A,4918.588,N,00014.888,W,3711.9,355.5,070824,000.0,W*5C
$GPGGA,009319.665,4918.825,N,00014.833,W,1,12,1.0,0.0,M,0.0,M,,*7A
$GPGSA,A,3,01,02,03,04,05,06,07,08,09,10,11,12,1.0,1.0,1.0*30
$GPRMC,009458.665,A,4918.696,N,00014.285,W,3711.9,355.5,070824,000.0,W*5C
$GPGGA,009956.665,4918.676,N,00014.487,W,1,12,1.0,0.0,M,0.0,M,,*7A
$GPGSA,A,3,01,02,03,04,05,06,07,08,09,10,11,12,1.0,1.0,1.0*30
$GPRMC,009238.665,A,4918.374,N,00014.765,W,3711.9,355.5,070824,000.0,W*5C
$GPGGA,009628.665,4918.262,N,00014.256,W,1,12,1.0,0.0,M,0.0,M,,*7A
$GPGSA,A,3,01,02,03,04,05,06,07,08,09,10,11,12,1.0,1.0,1.0*30
$GPRMC,009252.665,A,4918.516,N,00014.739,W,3711.9,355.5,070824,000.0,W*5C
$GPGGA,009486.665,4918.432,N,00014.181,W,1,12,1.0,0.0,M,0.0,M,,*7A
$GPGSA,A,3,01,02,03,04,05,06,07,08,09,10,11,12,1.0,1.0,1.0*30
$GPRMC,009843.665,A,4918.270,N,00014.663,W,3711.9,355.5,070824,000.0,W*5C
$GPGGA,009677.665,4918.708,N,00014.713,W,1,12,1.0,0.0,M,0.0,M,,*7A
$GPGSA,A,3,01,02,03,04,05,06,07,08,09,10,11,12,1.0,1.0,1.0*30
$GPRMC,009595.665,A,4918.149,N,00014.899,W,3711.9,355.5,070824,000.0,W*5C
$GPGGA,009972.665,4918.969,N,00014.679,W,1,12,1.0,0.0,M,0.0,M,,*7A
$GPGSA,A,3,01,02,03,04,05,06,07,08,09,10,11,12,1.0,1.0,1.0*30
$GPRMC,009043.665,A,4918.952,N,00014.731,W,3711.9,355.5,070824,000.0,W*5C
$GPGGA,009478.665,4918.619,N,00014.765,W,1,12,1.0,0.0,M,0.0,M,,*7A
$GPGSA,A,3,01,02,03,04,05,06,07,08,09,10,11,12,1.0,1.0,1.0*30
$GPRMC,009027.665,A,4918.762,N,00014.600,W,3711.9,355.5,070824,000.0,W*5C
$GPGGA,009938.665,4918.368,N,00014.548,W,1,12,1.0,0.0,M,0.0,M,,*7A
$GPGSA,A,3,01,02,03,04,05,06,07,08,09,10,11,12,1.0,1.0,1.0*30
$GPRMC,009667.665,A,4918.105,N,00014.448,W,3711.9,355.5,070824,000.0,W*5C
$GPGGA,010331.665,4918.504,N,00014.145,W,1,12,1.0,0.0,M,0.0,M,,*7A
$GPGSA,A,3,01,02,03,04,05,06,07,08,09,10,11,12,1.0,1.0,1.0*30
$GPRMC,010062.665,A,4918.669,N,00014.960,W,3711.9,355.5,070824,000.0,W*5C
$GPGGA,010460.665,4918.249,N,00014.860,W,1,12,1.0,0.0,M,0.0,M,,*7A
$GPGSA,A,3,01,02,03,04,05,06,07,08,09,10,11,12,1.0,1.0,1.0*30
$GPRMC,010312.665,A,4918.484,N,00014.105,W,3711.9,355.5,070824,000.0,W*5C
$GPGGA,010023.665,4918.209,N,00014.427,W,1,12,1.0,0.0,M,0.0,M,,*7A
$GPGSA,A,3,01,02,03,04,05,06,07,08,09,10,11,12,1.0,1.0,1.0*30
$GPRMC,010017.665,A,4918.625,N,00014.241,W,3711.9,355.5,070824,000.0,W*5C
$GPGGA,010158.665,4918.914,N,00014.260,W,1,12,1.0,0.0,M,0.0,M,,*7A
$GPGSA,A,3,01,02,03,04,05,06,07,08,09,10,11,12,1.0,1.0,1.0*30
$GPRMC,010318.665,A,4918.420,N,00014.133,W,3711.9,355.5,070824,000.0,W*5C
$GPGGA,010840.665,4918.184,N,00014.729,W,1,12,1.0,0.0,M,0.0,M,,*7A
$GPGSA,A,3,01,02,03,04,05,06,07,08,09,10,11,12,1.0,1.0,1.0*30
$GPRMC,010864.665,A,4918.461,N,00014.273,W,3711.9,355.5,070824,000.0,W*5C
$GPGGA,010312.665,4918.314,N,00014.331,W,1,12,1.0,0.0,M,0.0,M,,*7A
$GPGSA,A,3,01,02,03,04,05,06,07,08,09,10,11,12,1.0,1.0,1.0*30
$GPRMC,010557.665,A,4918.499,N,00014.423,W,3711.9,355.5,070824,000.0,W*5C
$GPGGA,010812.665,4918.526,N,00014.210,W,1,12,1.0,0.0,M,0.0,M,,*7A
$GPGSA,A,3,01,02,03,04,05,06,07,08,09,10,11,12,1.0,1.0,1.0*30
$GPRMC,010764.665,A,4918.205,N,00014.574,W,3711.9,355.5,070824,000.0,W*5C
$GPGGA,010792.665,4918.462,N,00014.500,W,1,12,1.0,0.0,M,0.0,M,,*7A
$GPGSA,A,3,01,02,03,04,05,06,07,08,09,10,11,12,1.0,1.0,1.0*30
$GPRMC,010846.665,A,4918.969,N,00014.623,W,3711.9,355.5,070824,000.0,W*5C
$GPGGA,010474.665,4918.278,N,00014.957,W,1,12,1.0,0.0,M,0.0,M,,*7A
$GPGSA,A,3,01,02,03,04,05,06,07,08,09,10,11,12,1.0,1.0,1.0*30
$GPRMC,010791.665,A,4918.933,N,00014.882,W,3711.9,355.5,070824,000.0,W*5C
$GPGGA,010240.665,4918.233,N,00014.507,W,1,12,1.0,0.0,M,0.0,M,,*7A
$GPGSA,A,3,01,02,03,04,05,06,07,08,09,10,11,12,1.0,1.0,1.0*30
$GPRMC,010680.665,A,4918.954,N,00014.287,W,3711.9,355.5,070824,000.0,W*5C
$GPGGA,010236.665,4918.791,N,00014.732,W,1,12,1.0,0.0,M,0.0,M,,*7A
$GPGSA,A,3,01,02,03,04,05,06,07,08,09,10,11,12,1.0,1.0,1.0*30
$GPRMC,010206.665,A,4918.567,N,00014.208,W,3711.9,355.5,070824,000.0,W*5C
$GPGGA,010894.665,4918.942,N,00014.484,W,1,12,1.0,0.0,M,0.0,M,,*7A
$GPGSA,A,3,01,02,03,04,05,06,07,08,09,10,11,12,1.0,1.0,1.0*30
$GPRMC,010024.665,A,4918.986,N,00014.768,W,3711.9,355.5,070824,000.0,W*5C
$GPGGA,010034.665,4918.226,N,00014.268,W,1,12,1.0,0.0,M,0.0,M,,*7A
$GPGSA,A,3,01,02,03,04,05,06,07,08,09,10,11,12,1.0,1.0,1.0*30
$GPRMC,010492.665,A,4918.168,N,00014.214,W,3711.9,355.5,070824,000.0,W*5C
$GPGGA,010183.665,4918.260,N,00014.984,W,1,12,1.0,0.0,M,0.0,M,,*7A
$GPGSA,A,3,01,02,03,04,05,06,07,08,09,10,11,12,1.0,1.0,1.0*30
$GPRMC,010373.665,A,4918.610,N,00014.911,W,3711.9,355.5,070824,000.0,W*5C
$GPGGA,010838.665,4918.133,N,00014.895,W,1,12,1.0,0.0,M,0.0,M,,*7A
$GPGSA,A,3,01,02,03,04,05,06,07,08,09,10,11,12,1.0,1.0,1.0*30
$GPRMC,010198.665,A,4918.306,N,00014.293,W,3711.9,355.5,070824,000.0,W*5C
$GPGGA,010639.665,4918.528,N,00014.907,W,1,12,1.0,0.0,M,0.0,M,,*7A
$GPGSA,A,3,01,02,03,04,05,06,07,08,09,10,11,12,1.0,1.0,1.0*30
$GPRMC,010348.665,A,4918.171,N,00014.903,W,3711.9,355.5,070824,000.0,W*5C
$GPGGA,010540.665,4918.787,N,00014.764,W,1,12,1.0,0.0,M,0.0,M,,*7A
$GPGSA,A,3,01,02,03,04,05,06,07,08,09,10,11,12,1.0,1.0,1.0*30
$GPRMC,010876.665,A,4918.104,N,00014.433,W,3711.9,355.5,070824,000.0,W*5C
$GPGGA,010692.665,4918.279,N,00014.413,W,1,12,1.0,0.0,M,0.0,M,,*7A
$GPGSA,A,3,01,02,03,04,05,06,07,08,09,10,11,12,1.0,1.0,1.0*30
$GPRMC,010164.665,A,4918.195,N,00014.822,W,3711.9,355.5,070824,000.0,W*5C
$GPGGA,010003.665,4918.734,N,00014.173,W,1,12,1.0,0.0,M,0.0,M,,*7A
$GPGSA,A,3,01,02,03,04,05,06,07,08,09,10,11,12,1.0,1.0,1.0*30
$GPRMC,010012.665,A,4918.856,N,00014.268,W,3711.9,355.5,070824,000.0,W*5C
$GPGGA,010361.665,4918.197,N,00014.385,W,1,12,1.0,0.0,M,0.0,M,,*7A
$GPGSA,A,3,01,02,03,04,05,06,07,08,09,10,11,12,1.0,1.0,1.0*30
$GPRMC,010351.665,A,4918.263,N,00014.723,W,3711.9,355.5,070824,000.0,W*5C
$GPGGA,010531.665,4918.984,N,00014.972,W,1,12,1.0,0.0,M,0.0,M,,*7A
$GPGSA,A,3,01,02,03,04,05,06,07,08,09,10,11,12,1.0,1.0,1.0*30
$GPRMC,010544.665,A,4918.581,N,00014.611,W,3711.9,355.5,070824,000.0,W*5C
$GPGGA,010220.665,4918.371,N,00014.152,W,1,12,1.0,0.0,M,0.0,M,,*7A
$GPGSA,A,3,01,02,03,04,05,06,07,08,09,10,11,12,1.0,1.0,1.0*30
$GPRMC,010088.665,A,4918.915,N,00014.396,W,3711.9,355.5,070824,000.0,W*5C
$GPGGA,010433.665,4918.253,N,00014.776,W,1,12,1.0,0.0,M,0.0,M,,*7A
$GPGSA,A,3,01,02,03,04,05,06,07,08,09,10,11,12,1.0,1.0,1.0*30
$GPRMC,010944.665,A,4918.294,N,00014.111,W,3711.9,355.5,070824,000.0,W*5C
$GPGGA,010936.665,4918.976,N,00014.720,W,1,12,1.0,0.0,M,0.0,M,,*7A
$GPGSA,A,3,01,02,03,04,05,06,07,08,09,10,11,12,1.0,1.0,1.0*30
$GPRMC,010559.665,A,4918.794,N,00014.167,W,3711.9,355.5,070824,000.0,W*5C
$GPGGA,010458.665,4918.877,N,00014.635,W,1,12,1.0,0.0,M,0.0,M,,*7A
$GPGSA,A,3,01,02,03,04,05,06,07,08,09,10,11,12,1.0,1.0,1.0*30
$GPRMC,010753.665,A,4918.831,N,00014.843,W,3711.9,355.5,070824,000.0,W*5C
$GPGGA,010141.665,4918.637,N,00014.831,W,1,12,1.0,0.0,M,0.0,M,,*7A
$GPGSA,A,3,01,02,03,04,05,06,07,08,09,10,11,12,1.0,1.0,1.0*30
$GPRMC,010528.665,A,4918.204,N,00014.633,W,3711.9,355.5,070824,000.0,W*5C
$GPGGA,010716.665,4918.753,N,00014.886,W,1,12,1.0,0.0,M,0.0,M,,*7A
$GPGSA,A,3,01,02,03,04,05,06,07,08,09,10,11,12,1.0,1.0,1.0*30
$GPRMC,010966.665,A,4918.635,N,00014.411,W,3711.9,355.5,070824,000.0,W*5C
$GPGGA,010767.665,4918.582,N,00014.572,W,1,12,1.0,0.0,M,0.0,M,,*7A
$GPGSA,A,3,01,02,03,04,05,06,07,08,09,10,11,12,1.0,1.0,1.0*30
$GPRMC,010569.665,A,4918.445,N,00014.919,W,3711.9,355.5,070824,000.0,W*5C
$GPGGA,010832.665,4918.122,N,00014.626,W,1,12,1.0,0.0,M,0.0,M,,*7A
$GPGSA,A,3,01,02,03,04,05,06,07,08,09,10,11,12,1.0,1.0,1.0*30
$GPRMC,010035.665,A,4918.270,N,00014.134,W,3711.9,355.5,070824,000.0,W*5C
$GPGGA,010580.665,4918.228,N,00014.168,W,1,12,1.0,0.0,M,0.0,M,,*7A
$GPGSA,A,3,01,02,03,04,05,06,07,08,09,10,11,12,1.0,1.0,1.0*30
$GPRMC,010133.665,A,4918.729,N,00014.745,W,3711.9,355.5,070824,000.0,W*5C
$GPGGA,010617.665,4918.169,N,00014.507,W,1,12,1.0,0.0,M,0.0,M,,*7A
$GPGSA,A,3,01,02,03,04,05,06,07,08,09,10,11,12,1.0,1.0,1.0*30
$GPRMC,010048.665,A,4918.915,N,00014.921,W,3711.9,355.5,070824,000.0,W*5C
$GPGGA,010309.665,4918.119,N,00014.732,W,1,12,1.0,0.0,M,0.0,M,,*7A
$GPGSA,A,3,01,02,03,04,05,06,07,08,09,10,11,12,1.0,1.0,1.0*30
$GPRMC,010658.665,A,4918.573,N,00014.915,W,3711.9,355.5,070824,000.0,W*5C
$GPGGA,010783.665,4918.343,N,00014.955,W,1,12,1.0,0.0,M,0.0,M,,*7A
$GPGSA,A,3,01,02,03,04,05,06,07,08,09,10,11,12,1.0,1.0,1.0*30
$GPRMC,010715.665,A,4918.821,N,00014.352,W,3711.9,355.5,070824,000.0,W*5C
$GPGGA,010226.665,4918.229,N,00014.678,W,1,12,1.0,0.0,M,0.0,M,,*7A
$GPGSA,A,3,01,02,03,04,05,06,07,08,09,10,11,12,1.0,1.0,1.0*30
$GPRMC,010050.665,A,4918.808,N,00014.360,W,3711.9,355.5,070824,000.0,W*5C
$GPGGA,010314.665,4918.138,N,00014.587,W,1,12,1.0,0.0,M,0.0,M,,*7A
$GPGSA,A,3,01,02,03,04,05,06,07,08,09,10,11,12,1.0,1.0,1.0*30
$GPRMC,010284.665,A,4918.384,N,00014.329,W,3711.9,355.5,070824,000.0,W*5C
$GPGGA,010566.665,4918.401,N,00014.155,W,1,12,1.0,0.0,M,0.0,M,,*7A
$GPGSA,A,3,01,02,03,04,05,06,07,08,09,10,11,12,1.0,1.0,1.0*30
$GPRMC,010979.665,A,4918.103,N,00014.496,W,3711.9,355.5,070824,000.0,W*5C
$GPGGA,010272.665,4918.260,N,00014.360,W,1,12,1.0,0.0,M,0.0,M,,*7A
$GPGSA,A,3,01,02,03,04,05,06,07,08,09,10,11,12,1.0,1.0,1.0*30
$GPRMC,010265.665,A,4918.960,N,00014.965,W,3711.9,355.5,070824,000.0,W*5C
$GPGGA,010268.665,4918.137,N,00014.329,W,1,12,1.0,0.0,M,0.0,M,,*7A
$GPGSA,A,3,01,02,03,04,05,06,07,08,09,10,11,12,1.0,1.0,1.0*30
$GPRMC,010193.665,A,4918.395,N,00014.415,W,3711.9,355.5,070824,000.0,W*5C
$GPGGA,010213.665,4918.727,N,00014.920,W,1,12,1.0,0.0,M,0.0,M,,*7A
$GPGSA,A,3,01,02,03,04,05,06,07,08,09,10,11,12,1.0,1.0,1.0*30
$GPRMC,010659.665,A,4918.827,N,00014.930,W,3711.9,355.5,070824,000.0,W*5C
$GPGGA,010716.665,4918.561,N,00014.848,W,1,12,1.0,0.0,M,0.0,M,,*7A
$GPGSA,A,3,01,02,03,04,05,06,07,08,09,10,11,12,1.0,1.0,1.0*30
$GPRMC,010294.665,A,4918.553,N,00014.699,W,3711.9,355.5,070824,000.0,W*5C
$GPGGA,010323.665,4918.728,N,00014.808,W,1,12,1.0,0.0,M,0.0,M,,*7A
$GPGSA,A,3,01,02,03,04,05,06,07,08,09,10,11,12,1.0,1.0,1.0*30
$GPRMC,010185.665,A,4918.752,N,00014.666,W,3711.9,355.5,070824,000.0,W*5C
$GPGGA,010524.665,4918.835,N,00014.111,W,1,12,1.0,0.0,M,0.0,M,,*7A
$GPGSA,A,3,01,02,03,04,05,06,07,08,09,10,11,12,1.0,1.0,1.0*30
$GPRMC,010694.665,A,4918.416,N,00014.355,W,3711.9,355.5,070824,000.0,W*5C
$GPGGA,010352.665,4918.303,N,00014.390,W,1,12,1.0,0.0,M,0.0,M,,*7A
$GPGSA,A,3,01,02,03,04,05,06,07,08,09,10,11,12,1.0,1.0,1.0*30
$GPRMC,010320.665,A,4918.841,N,00014.941,W,3711.9,355.5,070824,000.0,W*5C
$GPGGA,010323.665,4918.573,N,00014.495,W,1,12,1.0,0.0,M,0.0,M,,*7A
$GPGSA,A,3,01,02,03,04,05,06,07,08,09,10,11,12,1.0,1.0,1.0*30
$GPRMC,010862.665,A,4918.650,N,00014.319,W,3711.9,355.5,070824,000.0,W*5C
$GPGGA,010803.665,4918.364,N,00014.797,W,1,12,1.0,0.0,M,0.0,M,,*7A
$GPGSA,A,3,01,02,03,04,05,06,07,08,09,10,11,12,1.0,1.0,1.0*30
$GPRMC,010452.665,A,4918.181,N,00014.232,W,3711.9,355.5,070824,000.0,W*5C
$GPGGA,011887.665,4918.172,N,00014.204,W,1,12,1.0,0.0,M,0.0,M,,*7A
$GPGSA,A,3,01,02,03,04,05,06,07,08,09,10,11,12,1.0,1.0,1.0*30
$GPRMC,011365.665,A,4918.720,N,00014.717,W,3711.9,355.5,070824,000.0,W*5C
$GPGGA,011551.665,4918.783,N,00014.214,W,1,12,1.0,0.0,M,0.0,M,,*7A
$GPGSA,A,3,01,02,03,04,05,06,07,08,09,10,11,12,1.0,1.0,1.0*30
$GPRMC,011968.665,A,4918.221,N,00014.718,W,3711.9,355.5,070824,000.0,W*5C
$GPGGA,011166.665,4918.224,N,00014.891,W,1,12,1.0,0.0,M,0.0,M,,*7A
$GPGSA,A,3,01,02,03,04,05,06,07,08,09,10,11,12,1.0,1.0,1.0*30
$GPRMC,011378.665,A,4918.494,N,00014.600,W,3711.9,355.5,070824,000.0,W*5C
$GPGGA,011172.665,4918.681,N,00014.300,W,1,12,1.0,0.0,M,0.0,M,,*7A
$GPGSA,A,3,01,02,03,04,05,06,07,08,09,10,11,12,1.0,1.0,1.0*30
$GPRMC,011445.665,A,4918.106,N,00014.892,W,3711.9,355.5,070824,000.0,W*5C
$GPGGA,011250.665,4918.325,N,00014.277,W,1,12,1.0,0.0,M,0.0,M,,*7A
$GPGSA,A,3,01,02,03,04,05,06,07,08,09,10,11,12,1.0,1.0,1.0*30
$GPRMC,011298.665,A,4918.635,N,00014.850,W,3711.9,355.5,070824,000.0,W*5C
$GPGGA,011590.665,4918.723,N,00014.813,W,1,12,1.0,0.0,M,0.0,M,,*7A
$GPGSA,A,3,01,02,03,04,05,06,07,08,09,10,11,12,1.0,1.0,1.0*30
$GPRMC,011606.665,A,4918.951,N,00014.252,W,3711.9,355.5,070824,000.0,W*5C
$GPGGA,011867.665,4918.536,N,00014.752,W,1,12,1.0,0.0,M,0.0,M,,*7A
$GPGSA,A,3,01,02,03,04,05,06,07,08,09,10,11,12,1.0,1.0,1.0*30
$GPRMC,011664.665,A,4918.897,N,00014.573,W,3711.9,355.5,070824,000.0,W*5C
$GPGGA,011339.665,4918.669,N,00014.956,W,1,12,1.0,0.0,M,0.0,M,,*7A
$GPGSA,A,3,01,02,03,04,05,06,07,08,09,10,11,12,1.0,1.0,1.0*30
$GPRMC,011207.665,A,4918.540,N,00014.180,W,3711.9,355.5,070824,000.0,W*5C
$GPGGA,011357.665,4918.352,N,00014.153,W,1,12,1.0,0.0,M,0.0,M,,*7A
$GPGSA,A,3,01,02,03,04,05,06,07,08,09,10,11,12,1.0,1.0,1.0*30
$GPRMC,011635.665,A,4918.255,N,00014.947,W,3711.9,355.5,070824,000.0,W*5C
$GPGGA,011770.665,4918.581,N,00014.266,W,1,12,1.0,0.0,M,0.0,M,,*7A
$GPGSA,A,3,01,02,03,04,05,06,07,08,09,10,11,12,1.0,1.0,1.0*30
$GPRMC,011144.665,A,4918.533,N,00014.735,W,3711.9,355.5,070824,000.0,W*5C
$GPGGA,011510.665,4918.426,N,00014.664,W,1,12,1.0,0.0,M,0.0,M,,*7A
$GPGSA,A,3,01,02,03,04,05,06,07,08,09,10,11,12,1.0,1.0,1.0*30
$GPRMC,011411.665,A,4918.483,N,00014.191,W,3711.9,355.5,070824,000.0,W*5C
$GPGGA,011195.665,4918.677,N,00014.604,W,1,12,1.0,0.0,M,0.0,M,,*7A
$GPGSA,A,3,01,02,03,04,05,06,07,08,09,10,11,12,1.0,1.0,1.0*30
$GPRMC,011607.665,A,4918.790,N,00014.813,W,3711.9,355.5,070824,000.0,W*5C
$GPGGA,011367.665,4918.118,N,00014.266,W,1,12,1.0,0.0,M,0.0,M,,*7A
$GPGSA,A,3,01,02,03,04,05,06,07,08,09,10,11,12,1.0,1.0,1.0*30
$GPRMC,011916.665,A,4918.802,N,00014.108,W,3711.9,355.5,070824,000.0,W*5C
$GPGGA,011008.665,4918.774,N,00014.731,W,1,12,1.0,0.0,M,0.0,M,,*7A
$GPGSA,A,3,01,02,03,04,05,06,07,08,09,10,11,12,1.0,1.0,1.0*30
$GPRMC,011757.665,A,4918.468,N,00014.741,W,3711.9,355.5,070824,000.0,W*5C
$GPGGA,011729.665,4918.149,N,00014.808,W,1,12,1.0,0.0,M,0.0,M,,*7A
$GPGSA,A,3,01,02,03,04,05,06,07,08,09,10,11,12,1.0,1.0,1.0*30
$GPRMC,011980.665,A,4918.469,N,00014.366,W,3711.9,355.5,070824,000.0,W*5C
$GPGGA,011122.665,4918.736,N,00014.246,W,1,12,1.0,0.0,M,0.0,M,,*7A
$GPGSA,A,3,01,02,03,04,05,06,07,08,09,10,11,12,1.0,1.0,1.0*30
$GPRMC,011242.665,A,4918.993,N,00014.455,W,3711.9,355.5,070824,000.0,W*5C
$GPGGA,011126.665,4918.922,N,00014.878,W,1,12,1.0,0.0,M,0.0,M,,*7A
$GPGSA,A,3,01,02,03,04,05,06,07,08,09,10,11,12,1.0,1.0,1.0*30
$GPRMC,011512.665,A,4918.857,N,00014.537,W,3711.9,355.5,070824,000.0,W*5C
$GPGGA,011234.665,4918.724,N,00014.116,W,1,12,1.0,0.0,M,0.0,M,,*7A
$GPGSA,A,3,01,02,03,04,05,06,07,08,09,10,11,12,1.0,1.0,1.0*30
$GPRMC,011339.665,A,4918.537,N,00014.189,W,3711.9,355.5,070824,000.0,W*5C
$GPGGA,011612.665,4918.889,N,00014.244,W,1,12,1.0,0.0,M,0.0,M,,*7A
$GPGSA,A,3,01,02,03,04,05,06,07,08,09,10,11,12,1.0,1.0,1.0*30
$GPRMC,011173.665,A,4918.756,N,00014.943,W,3711.9,355.5,070824,000.0,W*5C
$GPGGA,011242.665,4918.136,N,00014.177,W,1,12,1.0,0.0,M,0.0,M,,*7A
$GPGSA,A,3,01,02,03,04,05,06,07,08,09,10,11,12,1.0,1.0,1.0*30
$GPRMC,011508.665,A,4918.492,N,00014.353,W,3711.9,355.5,070824,000.0,W*5C
$GPGGA,011835.665,4918.461,N,00014.657,W,1,12,1.0,0.0,M,0.0,M,,*7A
$GPGSA,A,3,01,02,03,04,05,06,07,08,09,10,11,12,1.0,1.0,1.0*30
$GPRMC,011337.665,A,4918.967,N,00014.796,W,3711.9,355.5,070824,000.0,W*5C
$GPGGA,011568.665,4918.635,N,00014.564,W,1,12,1.0,0.0,M,0.0,M,,*7A
$GPGSA,A,3,01,02,03,04,05,06,07,08,09,10,11,12,1.0,1.0,1.0*30
$GPRMC,011829.665,A,4918.522,N,00014.939,W,3711.9,355.5,070824,000.0,W*5C
$GPGGA,011573.665,4918.878,N,00014.688,W,1,12,1.0,0.0,M,0.0,M,,*7A
$GPGSA,A,3,01,02,03,04,05,06,07,08,09,10,11,12,1.0,1.0,1.0*30
$GPRMC,011642.665,A,4918.205,N,00014.617,W,3711.9,355.5,070824,000.0,W*5C
$GPGGA,011572.665,4918.129,N,00014.575,W,1,12,1.0,0.0,M,0.0,M,,*7A
$GPGSA,A,3,01,02,03,04,05,06,07,08,09,10,11,12,1.0,1.0,1.0*30
$GPRMC,011209.665,A,4918.704,N,00014.940,W,3711.9,355.5,070824,000.0,W*5C
$GPGGA,011442.665,4918.894,N,00014.402,W,1,12,1.0,0.0,M,0.0,M,,*7A
$GPGSA,A,3,01,02,03,04,05,06,07,08,09,10,11,12,1.0,1.0,1.0*30
$GPRMC,011163.665,A,4918.192,N,00014.150,W,3711.9,355.5,070824,000.0,W*5C
$GPGGA,011648.665,4918.716,N,00014.289,W,1,12,1.0,0.0,M,0.0,M,,*7A
$GPGSA,A,3,01,02,03,04,05,06,07,08,09,10,11,12,1.0,1.0,1.0*30
$GPRMC,011047.665,A,4918.521,N,00014.670,W,3711.9,355.5,070824,000.0,W*5C
$GPGGA,011787.665,4918.592,N,00014.118,W,1,12,1.0,0.0,M,0.0,M,,*7A
$GPGSA,A,3,01,02,03,04,05,06,07,08,09,10,11,12,1.0,1.0,1.0*30
$GPRMC,011275.665,A,4918.796,N,00014.432,W,3711.9,355.5,070824,000.0,W*5C
$GPGGA,011178.665,4918.140,N,00014.735,W,1,12,1.0,0.0,M,0.0,M,,*7A
$GPGSA,A,3,01,02,03,04,05,06,07,08,09,10,11,12,1.0,1.0,1.0*30
$GPRMC,011587.665,A,4918.452,N,00014.253,W,3711.9,355.5,070824,000.0,W*5C
$GPGGA,011676.665,4918.653,N,00014.329,W,1,12,1.0,0.0,M,0.0,M,,*7A
$GPGSA,A,3,01,02,03,04,05,06,07,08,09,10,11,12,1.0,1.0,1.0*30
$GPRMC,011871.665,A,4918.775,N,00014.475,W,3711.9,355.5,070824,000.0,W*5C
$GPGGA,011136.665,4918.744,N,00014.371,W,1,12,1.0,0.0,M,0.0,M,,*7A
$GPGSA,A,3,01,02,03,04,05,06,07,08,09,10,11,12,1.0,1.0,1.0*30
$GPRMC,011143.665,A,4918.779,N,00014.609,W,3711.9,355.5,070824,000.0,W*5C
$GPGGA,012202.665,4918.716,N,00014.956,W,1,12,1.0,0.0,M,0.0,M,,*7A
$GPGSA,A,3,01,02,03,04,05,06,07,08,09,10,11,12,1.0,1.0,1.0*30
$GPRMC,012550.665,A,4918.947,N,00014.498,W,3711.9,355.5,070824,000.0,W*5C
$GPGGA,012322.665,4918.589,N,00014.407,W,1,12,1.0,0.0,M,0.0,M,,*7A
$GPGSA,A,3,01,02,03,04,05,06,07,08,09,10,11,12,1.0,1.0,1.0*30
$GPRMC,012656.665,A,4918.524,N,00014.272,W,3711.9,355.5,070824,000.0,W*5C
$GPGGA,012291.665,4918.796,N,00014.289,W,1,12,1.0,0.0,M,0.0,M,,*7A
$GPGSA,A,3,01,02,03,04,05,06,07,08,09,10,11,12,1.0,1.0,1.0*30
$GPRMC,012612.665,A,4918.803,N,00014.511,W,3711.9,355.5,070824,000.0,W*5C
$GPGGA,012277.665,4918.799,N,00014.765,W,1,12,1.0,0.0,M,0.0,M,,*7A
$GPGSA,A,3,01,02,03,04,05,06,07,08,09,10,11,12,1.0,1.0,1.0*30
$GPRMC,012603.665,A,4918.915,N,00014.243,W,3711.9,355.5,070824,000.0,W*5C
$GPGGA,012487.665,4918.588,N,00014.477,W,1,12,1.0,0.0,M,0.0,M,,*7A
$GPGSA,A,3,01,02,03,04,05,06,07,08,09,10,11,12,1.0,1.0,1.0*30
$GPRMC,012117.665,A,4918.418,N,00014.601,W,3711.9,355.5,070824,000.0,W*5C
$GPGGA,012754.665,4918.800,N,00014.910,W,1,12,1.0,0.0,M,0.0,M,,*7A
$GPGSA,A,3,01,02,03,04,05,06,07,08,09,10,11,12,1.0,1.0,1.0*30
$GPRMC,012125.665,A,4918.667,N,00014.875,W,3711.9,355.5,070824,000.0,W*5C
$GPGGA,012032.665,4918.670,N,00014.270,W,1,12,1.0,0.0,M,0.0,M,,*7A
$GPGSA,A,3,01,02,03,04,05,06,07,08,09,10,11,12,1.0,1.0,1.0*30
$GPRMC,012505.665,A,4918.603,N,00014.108,W,3711.9,355.5,070824,000.0,W*5C
$GPGGA,012943.665,4918.529,N,00014.476,W,1,12,1.0,0.0,M,0.0,M,,*7A
$GPGSA,A,3,01,02,03,04,05,06,07,08,09,10,11,12,1.0,1.0,1.0*30
$GPRMC,012678.665,A,4918.571,N,00014.208,W,3711.9,355.5,070824,000.0,W*5C
$GPGGA,012637.665,4918.125,N,00014.102,W,1,12,1.0,0.0,M,0.0,M,,*7A
$GPGSA,A,3,01,02,03,04,05,06,07,08,09,10,11,12,1.0,1.0,1.0*30
$GPRMC,012005.665,A,4918.894,N,00014.210,W,3711.9,355.5,070824,000.0,W*5C
$GPGGA,012232.665,4918.929,N,00014.381,W,1,12,1.0,0.0,M,0.0,M,,*7A
$GPGSA,A,3,01,02,03,04,05,06,07,08,09,10,11,12,1.0,1.0,1.0*30
$GPRMC,012347.665,A,4918.282,N,00014.587,W,3711.9,355.5,070824,000.0,W*5C
$GPGGA,012405.665,4918.137,N,00014.409,W,1,12,1.0,0.0,M,0.0,M,,*7A
$GPGSA,A,3,01,02,03,04,05,06,07,08,09,10,11,12,1.0,1.0,1.0*30
$GPRMC,012745.665,A,4918.839,N,00014.667,W,3711.9,355.5,070824,000.0,W*5C
$GPGGA,012510.665,4918.782,N,00014.382,W,1,12,1.0,0.0,M,0.0,M,,*7A
$GPGSA,A,3,01,02,03,04,05,06,07,08,09,10,11,12,1.0,1.0,1.0*30
$GPRMC,012516.665,A,4918.717,N,00014.610,W,3711.9,355.5,070824,000.0,W*5C
$GPGGA,012063.665,4918.244,N,00014.927,W,1,12,1.0,0.0,M,0.0,M,,*7A
$GPGSA,A,3,01,02,03,04,05,06,07,08,09,10,11,12,1.0,1.0,1.0*30
$GPRMC,012133.665,A,4918.634,N,00014.321,W,3711.9,355.5,070824,000.0,W*5C
$GPGGA,012803.665,4918.699,N,00014.548,W,1,12,1.0,0.0,M,0.0,M,,*7A
$GPGSA,A,3,01,02,03,04,05,06,07,08,09,10,11,12,1.0,1.0,1.0*30
$GPRMC,012098.665,A,4918.911,N,00014.797,W,3711.9,355.5,070824,000.0,W*5C
$GPGGA,012548.665,4918.572,N,00014.297,W,1,12,1.0,0.0,M,0.0,M,,*7A
$GPGSA,A,3,01,02,03,04,05,06,07,08,09,10,11,12,1.0,1.0,1.0*30
$GPRMC,012965.665,A,4918.865,N,00014.214,W,3711.9,355.5,070824,000.0,W*5C
$GPGGA,012556.665,4918.325,N,00014.725,W,1,12,1.0,0.0,M,0.0,M,,*7A
$GPGSA,A,3,01,02,03,04,05,06,07,08,09,10,11,12,1.0,1.0,1.0*30
$GPRMC,012852.665,A,4918.449,N,00014.769,W,3711.9,355.5,070824,000.0,W*5C
$GPGGA,012554.665,4918.218,N,00014.506,W,1,12,1.0,0.0,M,0.0,M,,*7A
$GPGSA,A,3,01,02,03,04,05,06,07,08,09,10,11,12,1.0,1.0,1.0*30
$GPRMC,012830.665,A,4918.242,N,00014.391,W,3711.9,355.5,070824,000.0,W*5C
$GPGGA,012258.665,4918.507,N,00014.296,W,1,12,1.0,0.0,M,0.0,M,,*7A
$GPGSA,A,3,01,02,03,04,05,06,07,08,09,10,11,12,1.0,1.0,1.0*30
$GPRMC,012579.665,A,4918.817,N,00014.163,W,3711.9,355.5,070824,000.0,W*5C
$GPGGA,012564.665,4918.922,N,00014.121,W,1,12,1.0,0.0,M,0.0,M,,*7A
$GPGSA,A,3,01,02,03,04,05,06,07,08,09,10,11,12,1.0,1.0,1.0*30
$GPRMC,012150.665,A,4918.371,N,00014.329,W,3711.9,355.5,070824,000.0,W*5C
$GPGGA,012292.665,4918.692,N,00014.760,W,1,12,1.0,0.0,M,0.0,M,,*7A
$GPGSA,A,3,01,02,03,04,05,06,07,08,09,10,11,12,1.0,1.0,1.0*30
$GPRMC,012417.665,A,4918.159,N,00014.843,W,3711.9,355.5,070824,000.0,W*5C
$GPGGA,012513.665,4918.100,N,00014.389,W,1,12,1.0,0.0,M,0.0,M,,*7A
$GPGSA,A,3,01,02,03,04,05,06,07,08,09,10,11,12,1.0,1.0,1.0*30
$GPRMC,012598.665,A,4918.751,N,00014.355,W,3711.9,355.5,070824,000.0,W*5C
$GPGGA,012507.665,4918.558,N,00014.591,W,1,12,1.0,0.0,M,0.0,M,,*7A
$GPGSA,A,3,01,02,03,04,05,06,07,08,09,10,11,12,1.0,1.0,1.0*30
$GPRMC,012346.665,A,4918.811,N,00014.184,W,3711.9,355.5,070824,000.0,W*5C
$GPGGA,012805.665,4918.991,N,00014.916,W,1,12,1.0,0.0,M,0.0,M,,*7A
$GPGSA,A,3,01,02,03,04,05,06,07,08,09,10,11,12,1.0,1.0,1.0*30
$GPRMC,012667.665,A,4918.755,N,00014.255,W,3711.9,355.5,070824,000.0,W*5C
$GPGGA,012855.665,4918.874,N,00014.116,W,1,12,1.0,0.0,M,0.0,M,,*7A
$GPGSA,A,3,01,02,03,04,05,06,07,08,09,10,11,12,1.0,1.0,1.0*30
$GPRMC,012210.665,A,4918.466,N,00014.121,W,3711.9,355.5,070824,000.0,W*5C
$GPGGA,012680.665,4918.206,N,00014.237,W,1,12,1.0,0.0,M,0.0,M,,*7A
$GPGSA,A,3,01,02,03,04,05,06,07,08,09,10,11,12,1.0,1.0,1.0*30
$GPRMC,012689.665,A,4918.979,N,00014.711,W,3711.9,355.5,070824,000.0,W*5C
$GPGGA,012595.665,4918.342,N,00014.395,W,1,12,1.0,0.0,M,0.0,M,,*7A
$GPGSA,A,3,01,02,03,04,05,06,07,08,09,10,11,12,1.0,1.0,1.0*30
$GPRMC,012795.665,A,4918.581,N,00014.674,W,3711.9,355.5,070824,000.0,W*5C
$GPGGA,012270.665,4918.964,N,00014.794,W,1,12,1.0,0.0,M,0.0,M,,*7A
$GPGSA,A,3,01,02,03,04,05,06,07,08,09,10,11,12,1.0,1.0,1.0*30
$GPRMC,012130.665,A,4918.966,N,00014.985,W,3711.9,355.5,070824,000.0,W*5C
$GPGGA,012820.665,4918.444,N,00014.508,W,1,12,1.0,0.0,M,0.0,M,,*7A
$GPGSA,A,3,01,02,03,04,05,06,07,08,09,10,11,12,1.0,1.0,1.0*30
$GPRMC,012993.665,A,4918.426,N,00014.890,W,3711.9,355.5,070824,000.0,W*5C
$GPGGA,012625.665,4918.603,N,00014.439,W,1,12,1.0,0.0,M,0.0,M,,*7A
$GPGSA,A,3,01,02,03,04,05,06,07,08,09,10,11,12,1.0,1.0,1.0*30
$GPRMC,012947.665,A,4918.979,N,00014.951,W,3711.9,355.5,070824,000.0,W*5C
$GPGGA,012213.665,4918.252,N,00014.562,W,1,12,1.0,0.0,M,0.0,M,,*7A
$GPGSA,A,3,01,02,03,04,05,06,07,08,09,10,11,12,1.0,1.0,1.0*30
$GPRMC,012668.665,A,4918.330,N,00014.460,W,3711.9,355.5,070824,000.0,W*5C
$GPGGA,012953.665,4918.433,N,00014.156,W,1,12,1.0,0.0,M,0.0,M,,*7A
$GPGSA,A,3,01,02,03,04,05,06,07,08,09,10,11,12,1.0,1.0,1.0*30
$GPRMC,012598.665,A,4918.487,N,00014.640,W,3711.9,355.5,070824,000.0,W*5C
$GPGGA,012343.665,4918.422,N,00014.529,W,1,12,1.0,0.0,M,0.0,M,,*7A
$GPGSA,A,3,01,02,03,04,05,06,07,08,09,10,11,12,1.0,1.0,1.0*30
$GPRMC,012389.665,A,4918.537,N,00014.463,W,3711.9,355.5,070824,000.0,W*5C
$GPGGA,012197.665,4918.110,N,00014.687,W,1,12,1.0,0.0,M,0.0,M,,*7A
$GPGSA,A,3,01,02,03,04,05,06,07,08,09,10,11,12,1.0,1.0,1.0*30
$GPRMC,012808.665,A,4918.258,N,00014.168,W,3711.9,355.5,070824,000.0,W*5C
$GPGGA,012152.665,4918.922,N,00014.340,W,1,12,1.0,0.0,M,0.0,M,,*7A
$GPGSA,A,3,01,02,03,04,05,06,07,08,09,10,11,12,1.0,1.0,1.0*30
$GPRMC,012183.665,A,4918.394,N,00014.807,W,3711.9,355.5,070824,000.0,W*5C
$GPGGA,012162.665,4918.123,N,00014.784,W,1,12,1.0,0.0,M,0.0,M,,*7A
$GPGSA,A,3,01,02,03,04,05,06,07,08,09,10,11,12,1.0,1.0,1.0*30
$GPRMC,012773.665,A,4918.441,N,00014.557,W,3711.9,355.5,070824,000.0,W*5C
$GPGGA,012308.665,4918.250,N,00014.802,W,1,12,1.0,0.0,M,0.0,M,,*7A
$GPGSA,A,3,01,02,03,04,05,06,07,08,09,10,11,12,1.0,1.0,1.0*30
$GPRMC,012954.665,A,4918.682,N,00014.785,W,3711.9,355.5,070824,000.0,W*5C
$GPGGA,012742.665,4918.640,N,00014.722,W,1,12,1.0,0.0,M,0.0,M,,*7A
$GPGSA,A,3,01,02,03,04,05,06,07,08,09,10,11,12,1.0,1.0,1.0*30
$GPRMC,012316.665,A,4918.315,N,00014.379,W,3711.9,355.5,070824,000.0,W*5C
$GPGGA,012004.665,4918.163,N,00014.267,W,1,12,1.0,0.0,M,0.0,M,,*7A
$GPGSA,A,3,01,02,03,04,05,06,07,08,09,10,11,12,1.0,1.0,1.0*30
$GPRMC,012691.665,A,4918.580,N,00014.564,W,3711.9,355.5,070824,000.0,W*5C
$GPGGA,012350.665,4918.627,N,00014.640,W,1,12,1.0,0.0,M,0.0,M,,*7A
$GPGSA,A,3,01,02,03,04,05,06,07,08,09,10,11,12,1.0,1.0,1.0*30
$GPRMC,012978.665,A,4918.862,N,00014.459,W,3711.9,355.5,070824,000.0,W*5C
$GPGGA,012889.665,4918.381,N,00014.243,W,1,12,1.0,0.0,M,0.0,M,,*7A
$GPGSA,A,3,01,02,03,04,05,06,07,08,09,10,11,12,1.0,1.0,1.0*30
$GPRMC,012588.665,A,4918.550,N,00014.790,W,3711.9,355.5,070824,000.0,W*5C
$GPGGA,012647.665,4918.483,N,00014.600,W,1,12,1.0,0.0,M,0.0,M,,*7A
$GPGSA,A,3,01,02,03,04,05,06,07,08,09,10,11,12,1.0,1.0,1.0*30
$GPRMC,012567.665,A,4918.442,N,00014.240,W,3711.9,355.5,070824,000.0,W*5C
$GPGGA,012018.665,4918.381,N,00014.202,W,1,12,1.0,0.0,M,0.0,M,,*7A
$GPGSA,A,3,01,02,03,04,05,06,07,08,09,10,11,12,1.0,1.0,1.0*30
$GPRMC,012378.665,A,4918.252,N,00014.791,W,3711.9,355.5,070824,000.0,W*5C
$GPGGA,012682.665,4918.980,N,00014.439,W,1,12,1.0,0.0,M,0.0,M,,*7A
$GPGSA,A,3,01,02,03,04,05,06,07,08,09,10,11,12,1.0,1.0,1.0*30
$GPRMC,012672.665,A,4918.530,N,00014.582,W,3711.9,355.5,070824,000.0,W*5C
$GPGGA,012689.665,4918.225,N,00014.270,W,1,12,1.0,0.0,M,0.0,M,,*7A
$GPGSA,A,3,01,02,03,04,05,06,07,08,09,10,11,12,1.0,1.0,1.0*30
$GPRMC,012639.665,A,4918.964,N,00014.769,W,3711.9,355.5,070824,000.0,W*5C
$GPGGA,012336.665,4918.134,N,00014.376,W,1,12,1.0,0.0,M,0.0,M,,*7A
$GPGSA,A,3,01,02,03,04,05,06,07,08,09,10,11,12,1.0,1.0,1.0*30
$GPRMC,012827.665,A,4918.891,N,00014.406,W,3711.9,355.5,070824,000.0,W*5C
$GPGGA,012245.665,4918.439,N,00014.514,W,1,12,1.0,0.0,M,0.0,M,,*7A
$GPGSA,A,3,01,02,03,04,05,06,07,08,09,10,11,12,1.0,1.0,1.0*30
$GPRMC,012722.665,A,4918.992,N,00014.643,W,3711.9,355.5,070824,000.0,W*5C
$GPGGA,013927.665,4918.613,N,00014.278,W,1,12,1.0,0.0,M,0.0,M,,*7A
$GPGSA,A,3,01,02,03,04,05,06,07,08,09,10,11,12,1.0,1.0,1.0*30
$GPRMC,013396.665,A,4918.968,N,00014.920,W,3711.9,355.5,070824,000.0,W*5C
$GPGGA,013000.665,4918.224,N,00014.244,W,1,12,1.0,0.0,M,0.0,M,,*7A
$GPGSA,A,3,01,02,03,04,05,06,07,08,09,10,11,12,1.0,1.0,1.0*30
$GPRMC,013273.665,A,4918.388,N,00014.532,W,3711.9,355.5,070824,000.0,W*5C
$GPGGA,013883.665,4918.995,N,00014.739,W,1,12,1.0,0.0,M,0.0,M,,*7A
$GPGSA,A,3,01,02,03,04,05,06,07,08,09,10,11,12,1.0,1.0,1.0*30
$GPRMC,013922.665,A,4918.147,N,00014.992,W,3711.9,355.5,070824,000.0,W*5C
$GPGGA,013864.665,4918.750,N,00014.643,W,1,12,1.0,0.0,M,0.0,M,,*7A
$GPGSA,A,3,01,02,03,04,05,06,07,08,09,10,11,12,1.0,1.0,1.0*30
$GPRMC,013794.665,A,4918.340,N,00014.457,W,3711.9,355.5,070824,000.0,W*5C
$GPGGA,013133.665,4918.982,N,00014.967,W,1,12,1.0,0.0,M,0.0,M,,*7A
$GPGSA,A,3,01,02,03,04,05,06,07,08,09,10,11,12,1.0,1.0,1.0*30
$GPRMC,013233.665,A,4918.588,N,00014.972,W,3711.9,355.5,070824,000.0,W*5C
$GPGGA,013343.665,4918.325,N,00014.725,W,1,12,1.0,0.0,M,0.0,M,,*7A
$GPGSA,A,3,01,02,03,04,05,06,07,08,09,10,11,12,1.0,1.0,1.0*30
$GPRMC,013422.665,A,4918.819,N,00014.870,W,3711.9,355.5,070824,000.0,W*5C
$GPGGA,013349.665,4918.782,N,00014.717,W,1,12,1.0,0.0,M,0.0,M,,*7A
$GPGSA,A,3,01,02,03,04,05,06,07,08,09,10,11,12,1.0,1.0,1.0*30
$GPRMC,013887.665,A,4918.598,N,00014.572,W,3711.9,355.5,070824,000.0,W*5C
$GPGGA,013390.665,4918.840,N,00014.110,W,1,12,1.0,0.0,M,0.0,M,,*7A
$GPGSA,A,3,01,02,03,04,05,06,07,08,09,10,11,12,1.0,1.0,1.0*30
$GPRMC,013671.665,A,4918.146,N,00014.706,W,3711.9,355.5,070824,000.0,W*5C
$GPGGA,013817.665,4918.209,N,00014.277,W,1,12,1.0,0.0,M,0.0,M,,*7A
$GPGSA,A,3,01,02,03,04,05,06,07,08,09,10,11,12,1.0,1.0,1.0*30
$GPRMC,013769.665,A,4918.778,N,00014.957,W,3711.9,355.5,070824,000.0,W*5C
$GPGGA,013002.665,4918.313,N,00014.658,W,1,12,1.0,0.0,M,0.0,M,,*7A
$GPGSA,A,3,01,02,03,04,05,06,07,08,09,10,11,12,1.0,1.0,1.0*30
$GPRMC,013335.665,A,4918.651,N,00014.842,W,3711.9,355.5,070824,000.0,W*5C
$GPGGA,013958.665,4918.452,N,00014.664,W,1,12,1.0,0.0,M,0.0,M,,*7A
$GPGSA,A,3,01,02,03,04,05,06,07,08,09,10,11,12,1.0,1.0,1.0*30
$GPRMC,013713.665,A,4918.881,N,00014.300,W,3711.9,355.5,070824,000.0,W*5C
$GPGGA,013761.665,4918.248,N,00014.497,W,1,12,1.0,0.0,M,0.0,M,,*7A
$GPGSA,A,3,01,02,03,04,05,06,07,08,09,10,11,12,1.0,1.0,1.0*30
$GPRMC,013865.665,A,4918.984,N,00014.218,W,3711.9,355.5,070824,000.0,W*5C
$GPGGA,013161.665,4918.436,N,00014.810,W,1,12,1.0,0.0,M,0.0,M,,*7A
$GPGSA,A,3,01,02,03,04,05,06,07,08,09,10,11,12,1.0,1.0,1.0*30
$GPRMC,013505.665,A,4918.223,N,00014.807,W,3711.9,355.5,070824,000.0,W*5C
$GPGGA,013030.665,4918.978,N,00014.971,W,1,12,1.0,0.0,M,0.0,M,,*7A
$GPGSA,A,3,01,02,03,04,05,06,07,08,09,10,11,12,1.0,1.0,1.0*30
$GPRMC,013041.665,A,4918.295,N,00014.478,W,3711.9,355.5,070824,000.0,W*5C
$GPGGA,013172.665,4918.928,N,00014.525,W,1,12,1.0,0.0,M,0.0,M,,*7A
$GPGSA,A,3,01,02,03,04,05,06,07,08,09,10,11,12,1.0,1.0,1.0*30
$GPRMC,013424.665,A,4918.195,N,00014.657,W,3711.9,355.5,070824,000.0,W*5C
$GPGGA,013949.665,4918.866,N,00014.331,W,1,12,1.0,0.0,M,0.0,M,,*7A
$GPGSA,A,3,01,02,03,04,05,06,07,08,09,10,11,12,1.0,1.0,1.0*30
$GPRMC,013762.665,A,4918.708,N,00014.528,W,3711.9,355.5,070824,000.0,W*5C
$GPGGA,013310.665,4918.414,N,00014.815,W,1,12,1.0,0.0,M,0.0,M,,*7A
$GPGSA,A,3,01,02,03,04,05,06,07,08,09,10,11,12,1.0,1.0,1.0*30
$GPRMC,013261.665,A,4918.992,N,00014.667,W,3711.9,355.5,070824,000.0,W*5C
$GPGGA,014740.665,4918.130,N,00014.183,W,1,12,1.0,0.0,M,0.0,M,,*7A
$GPGSA,A,3,01,02,03,04,05,06,07,08,09,10,11,12,1.0,1.0,1.0*30
$GPRMC,014947.665,A,4918.225,N,00014.188,W,3711.9,355.5,070824,000.0,W*5C
$GPGGA,014160.665,4918.899,N,00014.183,W,1,12,1.0,0.0,M,0.0,M,,*7A
$GPGSA,A,3,01,02,03,04,05,06,07,08,09,10,11,12,1.0,1.0,1.0*30
$GPRMC,014606.665,A,4918.663,N,00014.771,W,3711.9,355.5,070824,000.0,W*5C
$GPGGA,014775.665,4918.109,N,00014.781,W,1,12,1.0,0.0,M,0.0,M,,*7A
$GPGSA,A,3,01,02,03,04,05,06,07,08,09,10,11,12,1.0,1.0,1.0*30
$GPRMC,014316.665,A,4918.446,N,00014.131,W,3711.9,355.5,070824,000.0,W*5C
$GPGGA,014343.665,4918.880,N,00014.341,W,1,12,1.0,0.0,M,0.0,M,,*7A
$GPGSA,A,3,01,02,03,04,05,06,07,08,09,10,11,12,1.0,1.0,1.0*30
$GPRMC,014496.665,A,4918.787,N,00014.523,W,3711.9,355.5,070824,000.0,W*5C
$GPGGA,014334.665,4918.349,N,00014.946,W,1,12,1.0,0.0,M,0.0,M,,*7A
$GPGSA,A,3,01,02,03,04,05,06,07,08,09,10,11,12,1.0,1.0,1.0*30
$GPRMC,014765.665,A,4918.682,N,00014.570,W,3711.9,355.5,070824,000.0,W*5C
$GPGGA,014807.665,4918.802,N,00014.107,W,1,12,1.0,0.0,M,0.0,M,,*7A
$GPGSA,A,3,01,02,03,04,05,06,07,08,09,10,11,12,1.0,1.0,1.0*30
$GPRMC,014728.665,A,4918.514,N,00014.724,W,3711.9,355.5,070824,000.0,W*5C
$GPGGA,014849.665,4918.984,N,00014.794,W,1,12,1.0,0.0,M,0.0,M,,*7A
$GPGSA,A,3,01,02,03,04,05,06,07,08,09,10,11,12,1.0,1.0,1.0*30
$GPRMC,014811.665,A,4918.952,N,00014.392,W,3711.9,355.5,070824,000.0,W*5C
$GPGGA,014746.665,4918.190,N,00014.414,W,1,12,1.0,0.0,M,0.0,M,,*7A
$GPGSA,A,3,01,02,03,04,05,06,07,08,09,10,11,12,1.0,1.0,1.0*30
$GPRMC,014936.665,A,4918.478,N,00014.107,W,3711.9,355.5,070824,000.0,W*5C
$GPGGA,014014.665,4918.179,N,00014.620,W,1,12,1.0,0.0,M,0.0,M,,*7A
$GPGSA,A,3,01,02,03,04,05,06,07,08,09,10,11,12,1.0,1.0,1.0*30
$GPRMC,014420.665,A,4918.214,N,00014.708,W,3711.9,355.5,070824,000.0,W*5C
$GPGGA,014714.665,4918.691,N,00014.594,W,1,12,1.0,0.0,M,0.0,M,,*7A
$GPGSA,A,3,01,02,03,04,05,06,07,08,09,10,11,12,1.0,1.0,1.0*30
$GPRMC,014740.665,A,4918.671,N,00014.499,W,3711.9,355.5,070824,000.0,W*5C
$GPGGA,014866.665,4918.988,N,00014.769,W,1,12,1.0,0.0,M,0.0,M,,*7A
$GPGSA,A,3,01,02,03,04,05,06,07,08,09,10,11,12,1.0,1.0,1.0*30
$GPRMC,014613.665,A,4918.102,N,00014.580,W,3711.9,355.5,070824,000.0,W*5C
$GPGGA,014831.665,4918.584,N,00014.801,W,1,12,1.0,0.0,M,0.0,M,,*7A
$GPGSA,A,3,01,02,03,04,05,06,07,08,09,10,11,12,1.0,1.0,1.0*30
$GPRMC,014643.665,A,4918.286,N,00014.141,W,3711.9,355.5,070824,000.0,W*5C
$GPGGA,014867.665,4918.986,N,00014.526,W,1,12,1.0,0.0,M,0.0,M,,*7A
$GPGSA,A,3,01,02,03,04,05,06,07,08,09,10,11,12,1.0,1.0,1.0*30
$GPRMC,014456.665,A,4918.253,N,00014.330,W,3711.9,355.5,070824,000.0,W*5C
$GPGGA,014635.665,4918.963,N,00014.501,W,1,12,1.0,0.0,M,0.0,M,,*7A
$GPGSA,A,3,01,02,03,04,05,06,07,08,09,10,11,12,1.0,1.0,1.0*30
$GPRMC,014853.665,A,4918.954,N,00014.635,W,3711.9,355.5,070824,000.0,W*5C
$GPGGA,014248.665,4918.699,N,00014.998,W,1,12,1.0,0.0,M,0.0,M,,*7A
$GPGSA,A,3,01,02,03,04,05,06,07,08,09,10,11,12,1.0,1.0,1.0*30
$GPRMC,014890.665,A,4918.820,N,00014.615,W,3711.9,355.5,070824,000.0,W*5C
$GPGGA,014470.665,4918.504,N,00014.981,W,1,12,1.0,0.0,M,0.0,M,,*7A
$GPGSA,A,3,01,02,03,04,05,06,07,08,09,10,11,12,1.0,1.0,1.0*30
$GPRMC,014436.665,A,4918.958,N,00014.278,W,3711.9,355.5,070824,000.0,W*5C
$GPGGA,014817.665,4918.493,N,00014.716,W,1,12,1.0,0.0,M,0.0,M,,*7A
$GPGSA,A,3,01,02,03,04,05,06,07,08,09,10,11,12,1.0,1.0,1.0*30
$GPRMC,014619.665,A,4918.642,N,00014.741,W,3711.9,355.5,070824,000.0,W*5C
$GPGGA,014677.665,4918.314,N,00014.355,W,1,12,1.0,0.0,M,0.0,M,,*7A
$GPGSA,A,3,01,02,03,04,05,06,07,08,09,10,11,12,1.0,1.0,1.0*30
$GPRMC,014266.665,A,4918.206,N,00014.949,W,3711.9,355.5,070824,000.0,W*5C
$GPGGA,014491.665,4918.863,N,00014.319,W,1,12,1.0,0.0,M,0.0,M,,*7A
$GPGSA,A,3,01,02,03,04,05,06,07,08,09,10,11,12,1.0,1.0,1.0*30
$GPRMC,014478.665,A,4918.198,N,00014.547,W,3711.9,355.5,070824,000.0,W*5C
$GPGGA,014045.665,4918.929,N,00014.862,W,1,12,1.0,0.0,M,0.0,M,,*7A
$GPGSA,A,3,01,02,03,04,05,06,07,08,09,10,11,12,1.0,1.0,1.0*30
$GPRMC,014851.665,A,4918.640,N,00014.370,W,3711.9,355.5,070824,000.0,W*5C
$GPGGA,014504.665,4918.460,N,00014.360,W,1,12,1.0,0.0,M,0.0,M,,*7A
